stop_id,stop_code,stop_name,stop_desc,stop_lat,stop_lon,stop_url,location_type,parent_station,thoreb_id
134773,5701054-1,"Laimi",,59.22155,23.67992,,,,3294
134774,5701055-1,"Laimi",,59.22143,23.67969,,,,4545
9495,5700265-1,"Nõva",,59.22309,23.68909,,,,9495
9496,5700266-1,"Nõva",,59.22284,23.68963,,,,9496
9493,5700453-1,"Vaisi",,59.21335,23.71257,,,,9493
9494,5700454-1,"Vaisi",,59.21334,23.71180,,,,9494
25469,5700338-1,"Risti",,58.99870,24.05880,,,,25469
25470,5700337-1,"Risti",,58.99850,24.05886,,,,25470
4854,22723-1,"Rehemäe",,59.00036,24.10741,,,,4854
4855,22724-1,"Rehemäe",,59.00035,24.10791,,,,4855
4852,22725-1,"Riiaküla",,59.02844,24.15262,,,,4852
4853,22726-1,"Riiaküla",,59.02854,24.15305,,,,4853
145110,5901176-1,"Eha",,59.57479,25.95053,,,,6052
145111,5901177-1,"Eha",,59.57463,25.95166,,,,6053
30125,5900072-1,"Eru",,59.56391,25.86621,,,,30125
80813,5900073-1,"Eru",,59.56398,25.86604,,,,6032
25206,5900333-1,"Käsmu",,59.60121,25.91901,,,,25206
32260,5900366-1,"Lepispea",,59.57554,25.93692,,,,32260
80809,5900365-1,"Lepispea",,59.57561,25.93691,,,,6029
32591,5900926-1,"Vergi tee",,59.57641,25.97017,,,,32591
80804,5900925-1,"Vergi tee",,59.57670,25.97047,,,,6027
26582,5900990-1,"Võsu",,59.57620,25.96038,,,,26582
80807,5900989-1,"Võsu",,59.57630,25.96034,,,,6028
9970,7000008-1,"Aespa",,59.20773,24.65694,,,,9970
14583,7000007-1,"Aespa",,59.20765,24.65691,,,,14583
14056,7000050-1,"Entusiasti",,59.20568,24.63658,,,,14056
14052,7000072-1,"Ikaruse",,59.21655,24.66445,,,,14052
9916,7000123-1,"Kaiu",,59.01342,25.05550,,,,9916
9913,7000146-1,"Kasvandu",,59.02364,25.04367,,,,9913
9914,7000147-1,"Kasvandu",,59.02346,25.04426,,,,9914
28683,7000187-1,"Kohila",,59.16758,24.76006,,,,28683
9911,7000204-1,"Kolgu",,59.04187,25.03130,,,,9911
9912,7000203-1,"Kolgu",,59.04209,25.03129,,,,9912
13352,7000214-1,"Kuimetsa rahvamaja",,59.04466,25.11669,,,,13352
147122,7000745-1,"Rõõsapõllu",,59.07366,25.16233,,,,6176
147244,7000746-1,"Rõõsapõllu",,59.07320,25.16236,,,,6182
152263,7000821-1,"Tammelehe",,59.20681,24.64697,,,,6379
152264,7000822-1,"Tammelehe",,59.20689,24.64669,,,,6380
28161,7000559-1,"Urge",,59.18221,24.78307,,,,28161
30263,7000561-1,"Urge",,59.18258,24.78297,,,,30263
147121,7000747-1,"Vanakõrtsu",,59.08543,25.17661,,,,6175
9905,7000213-1,"Kuimetsa rahvamaja",,59.04611,25.11600,,,,9905
9899,7000256-1,"Küüni",,59.07927,25.16644,,,,9899
9900,7000257-1,"Küüni",,59.07954,25.16697,,,,9900
9907,7000264-1,"Lagevainu",,59.04074,25.08825,,,,9907
9908,7000265-1,"Lagevainu",,59.04061,25.08858,,,,9908
9903,7000562-1,"Urke",,59.05669,25.13782,,,,9903
9904,7000563-1,"Urke",,59.05662,25.13826,,,,9904
147245,7000748-1,"Vanakõrtsu",,59.08497,25.17610,,,,6183
9901,7000604-1,"Vaopere",,59.06705,25.15475,,,,9901
9902,7000603-1,"Vaopere",,59.06709,25.15528,,,,9902
9909,7000633-1,"Villema",,59.03764,25.07113,,,,9909
9910,7000634-1,"Villema",,59.03751,25.07126,,,,9910
9969,7000205-1,"Ikaruse",,59.21661,24.66420,,,,9969
9938,7000383-1,"Suvila",,59.20925,24.66294,,,,9938
9939,7000384-1,"Suvila",,59.20959,24.66299,,,,9939
10832,21310-1,"Aegviidu",,59.28543,25.61281,,,,10832
10833,21309-1,"Aegviidu",,59.28518,25.61308,,,,10833
12127,37401-1,"Härmakosu",,59.39317,25.44423,,,,12127
11700,37007-1,"Pillapalu küla",,59.34224,25.57333,,,,11700
10844,37905-1,"Kehra",,59.33722,25.33406,,,,10844
10845,37904-1,"Kehra",,59.33676,25.33521,,,,10845
10840,37204-1,"Lahinguvälja",,59.31434,25.41092,,,,10840
10841,37203-1,"Lahinguvälja",,59.31447,25.41022,,,,10841
10834,37102-1,"Mustjõe",,59.29824,25.46511,,,,10834
10835,37101-1,"Mustjõe",,59.29835,25.46441,,,,10835
10849,38202-1,"Parila",,59.35681,25.26728,,,,10849
10850,38201-1,"Parila",,59.35698,25.26617,,,,10850
5234,21402-1,"Alavere",,59.24792,25.32807,,,,5234
5235,21401-1,"Alavere",,59.24779,25.32944,,,,5235
151278,37917-1,"Paberi",,59.34141,25.33597,,,,6165
5283,37202-1,"Metskonna",,59.37200,25.53037,,,,5283
5284,37201-1,"Metskonna",,59.37222,25.52990,,,,5284
5300,38503-1,"Partsaare",,59.39444,25.30169,,,,5300
5301,38504-1,"Partsaare",,59.39429,25.30162,,,,5301
5285,37001-1,"Pillapalu",,59.35587,25.58281,,,,5285
5286,37002-1,"Pillapalu",,59.35565,25.58329,,,,5286
5279,37302-1,"Raudoja",,59.37836,25.45223,,,,5279
5280,37301-1,"Raudoja",,59.37841,25.45163,,,,5280
5273,37502-1,"Soodla",,59.38754,25.33541,,,,5273
5274,37501-1,"Soodla",,59.38760,25.33477,,,,5274
5275,37504-1,"Soodla kauplus",,59.38665,25.36614,,,,5275
5276,37503-1,"Soodla kauplus",,59.38674,25.36534,,,,5276
5281,37306-1,"Tõrrepõhja",,59.37983,25.49558,,,,5281
5282,37305-1,"Tõrrepõhja",,59.38000,25.49502,,,,5282
5277,37304-1,"Vikipalu",,59.37770,25.42301,,,,5277
5278,37303-1,"Vikipalu",,59.37777,25.42240,,,,5278
136655,37914-1,"Kehra",,59.33439,25.33233,,,,4612
136656,37915-1,"Kehra",,59.33459,25.33243,,,,4613
9437,21463-1,"Lasteaia",,59.32652,25.34184,,,,9437
5256,21449-1,"Lehtmetsa",,59.31886,25.35067,,,,5256
5257,21450-1,"Lehtmetsa",,59.31906,25.35108,,,,5257
5258,37912-1,"Sõpruse väljak",,59.32996,25.33925,,,,5258
5260,37913-1,"Sõpruse väljak",,59.33023,25.33917,,,,5260
10558,37903-1,"Kehra raudteejaam",,59.33687,25.33307,,,,10558
5304,38402-1,"Anija",,59.37765,25.30515,,,,5304
5305,38401-1,"Anija",,59.37701,25.30645,,,,5305
5254,21406-1,"Kaunissaare",,59.30543,25.35685,,,,5254
5255,21405-1,"Kaunissaare",,59.30591,25.35655,,,,5255
11093,38301-1,"Kuusemäe",,59.37257,25.31544,,,,11093
11094,38302-1,"Kuusemäe",,59.37178,25.31639,,,,11094
5246,21416-1,"Mesila",,59.27316,25.35816,,,,5246
5247,21415-1,"Mesila",,59.27383,25.35930,,,,5247
5252,21418-1,"Palmimäe",,59.29836,25.36438,,,,5252
5253,21417-1,"Palmimäe",,59.29942,25.36230,,,,5253
5232,21424-1,"Perila tee",,59.25434,25.32343,,,,5232
5233,21423-1,"Perila tee",,59.25484,25.32606,,,,5233
5248,21426-1,"Pikva",,59.28110,25.37301,,,,5248
5249,21425-1,"Pikva",,59.28141,25.37348,,,,5249
5250,21432-1,"Raastu",,59.29228,25.37554,,,,5250
5251,21431-1,"Raastu",,59.29304,25.37535,,,,5251
13858,21467-1,"Salumetsa",,59.34219,25.31005,,,,13858
134131,21468-1,"Salumetsa",,59.34307,25.31113,,,,4257
5244,21456-1,"Voose",,59.20565,25.42345,,,,5244
13318,21464-1,"Kreo",,59.21216,25.50335,,,,13318
13319,21465-1,"Kreo",,59.21261,25.50363,,,,13319
149970,21469-1,"Söesauna",,59.21155,25.51063,,,,6264
5228,21413-1,"Lükati",,59.27779,25.27981,,,,5228
5229,21414-1,"Lükati",,59.27736,25.28064,,,,5229
5240,21420-1,"Paluküla",,59.22127,25.41566,,,,5240
5241,21419-1,"Paluküla",,59.22148,25.41521,,,,5241
5224,23031-1,"Puidutööstuse",,59.28303,25.23753,,,,5224
5230,21436-1,"Rooküla",,59.26306,25.30722,,,,5230
5231,21435-1,"Rooküla",,59.26271,25.30744,,,,5231
5238,21442-1,"Soo-otsa",,59.23147,25.38808,,,,5238
5239,21441-1,"Soo-otsa",,59.23174,25.38792,,,,5239
5236,21445-1,"Uuearu",,59.24380,25.35528,,,,5236
5237,21446-1,"Uuearu",,59.24409,25.35494,,,,5237
5242,21452-1,"Vetla",,59.22136,25.44302,,,,5242
5243,21451-1,"Vetla",,59.22114,25.44347,,,,5243
5267,37802-1,"Idu",,59.35207,25.33962,,,,5267
5268,37801-1,"Idu",,59.35227,25.34012,,,,5268
5271,37602-1,"Lilli",,59.37054,25.35430,,,,5271
5272,37601-1,"Lilli",,59.37228,25.35380,,,,5272
5269,37604-1,"Looküla",,59.36232,25.35701,,,,5269
5270,37603-1,"Looküla",,59.36260,25.35704,,,,5270
10557,37908-1,"Kehra kool",,59.33166,25.33419,,,,10557
150723,37916-1,"Paberi",,59.34032,25.33419,,,,6318
132210,47206-1,"Jüri",,59.37195,24.35349,,,,4018
132215,47207-1,"Jüri",,59.37193,24.35335,,,,4025
132209,47203-1,"Kadaka",,59.38281,24.33351,,,,4017
132214,47202-1,"Kadaka",,59.38277,24.33352,,,,4024
140762,47223-1,"Liiva tee",,59.43201,24.56577,,,,5836
149619,47227-1,"Meriküla",,59.46662,24.45840,,,,6255
132211,47210-1,"Mäe",,59.36971,24.37446,,,,4020
132216,47211-1,"Mäe",,59.36967,24.37447,,,,4027
132212,47209-1,"Männi",,59.36537,24.40567,,,,4021
132217,47208-1,"Männi",,59.36534,24.40557,,,,4028
140759,47220-1,"Sinilille tee",,59.42483,24.58586,,,,5833
140760,47221-1,"Sinilille tee",,59.42500,24.58536,,,,5834
140757,47218-1,"Välja tee",,59.42029,24.59160,,,,5831
140758,47219-1,"Välja tee",,59.41979,24.59056,,,,5832
128855,23395-1,"Tammi tee",,59.40796,24.54666,,,,143
12208,20813-3,"Harkujärve",,59.41271,24.60674,,,,12208
12230,47009-1,"Harkujärve",,59.41271,24.60634,,,,12230
4694,21509-1,"Kruusiaugu",,59.38114,24.44580,,,,4694
4696,21511-1,"Kruusiaugu",,59.38130,24.44526,,,,4696
8558,21576-1,"Lätte tee",,59.42681,24.41696,,,,8558
8559,21577-1,"Lätte tee",,59.42662,24.41733,,,,8559
4692,21522-1,"Metsatuka",,59.40421,24.41001,,,,4692
4693,21523-1,"Metsatuka",,59.40465,24.41002,,,,4693
4697,21560-1,"Vahi",,59.37502,24.46917,,,,4697
4698,21561-1,"Vahi",,59.37527,24.46874,,,,4698
4686,21563-1,"Vaila tee",,59.41553,24.41568,,,,4686
4687,21562-1,"Vaila tee",,59.41575,24.41612,,,,4687
4661,21540-1,"Viljapuu tee",,59.43417,24.40220,,,,4661
4662,21541-1,"Viljapuu tee",,59.43413,24.40211,,,,4662
134713,47212-1,"Viti tankla",,59.44532,24.38094,,,,4422
134714,47213-1,"Viti tankla",,59.44542,24.38085,,,,4423
4688,21568-1,"Vääna kool",,59.38876,24.41201,,,,4688
4689,21569-1,"Vääna kool",,59.38907,24.41228,,,,4689
4690,21566-1,"Väänatammi tee",,59.39664,24.41277,,,,4690
4691,21567-1,"Väänatammi tee",,59.39643,24.41282,,,,4691
12197,47004-1,"Kiriku",,59.41593,24.60122,,,,12197
12198,47003-1,"Kiriku",,59.41585,24.60270,,,,12198
4637,21501-1,"Ilmandu",,59.44883,24.46395,,,,4637
4638,21502-1,"Ilmandu",,59.44954,24.46251,,,,4638
803,00118-1,"Jõeküla",,59.43581,24.58196,,,,803
804,00119-1,"Jõeküla",,59.43609,24.58117,,,,804
4625,21504-1,"Kallaste",,59.42964,24.55122,,,,4625
4626,21503-1,"Kallaste",,59.42947,24.55019,,,,4626
4639,21532-1,"Kolmiku",,59.45405,24.44569,,,,4639
4640,21533-1,"Kolmiku",,59.45433,24.44345,,,,4640
4629,21520-1,"Mere tee",,59.43339,24.52470,,,,4629
4630,21521-1,"Mere tee",,59.43319,24.52558,,,,4630
4641,21525-1,"Muraste",,59.45580,24.42617,,,,4641
4642,21524-1,"Muraste",,59.45549,24.42803,,,,4642
4665,21526-1,"Naage",,59.41670,24.34398,,,,4665
4666,21527-1,"Naage",,59.41708,24.34419,,,,4666
12890,21528-1,"Pangapealse",,59.45294,24.45432,,,,12890
12891,21529-1,"Pangapealse",,59.45203,24.45625,,,,12891
4631,21534-1,"Rannamõisa",,59.43687,24.51444,,,,4631
4632,21535-1,"Rannamõisa",,59.43721,24.51295,,,,4632
4663,21564-1,"Rannasüdame",,59.42173,24.35144,,,,4663
4664,21565-1,"Rannasüdame",,59.42129,24.34968,,,,4664
4635,21518-1,"Runtsi tee",,59.44630,24.47881,,,,4635
4636,21519-1,"Runtsi tee",,59.44691,24.47702,,,,4636
4643,21538-1,"Suurupi tee",,59.45314,24.40831,,,,4643
4644,21539-1,"Suurupi tee",,59.45275,24.40606,,,,4644
4633,21546-1,"Sõrve tee",,59.43810,24.50264,,,,4633
126322,47018-1,"Sõrve tee",,59.43821,24.50250,,,,34
4627,21549-1,"Tabasalu",,59.43028,24.53910,,,,4627
4628,21548-1,"Tabasalu",,59.43076,24.53774,,,,4628
4622,21552-1,"Tiskre",,59.43326,24.56333,,,,4622
4624,21553-1,"Tiskre",,59.43216,24.56183,,,,4624
801,00116-1,"Tiskre oja",,59.43142,24.60146,,,,801
802,00117-1,"Tiskre oja",,59.43164,24.60062,,,,802
126777,47039-1,"Vahepere",,59.43709,24.57166,,,,63
126778,47040-1,"Vahepere",,59.43694,24.57434,,,,64
4657,21572-1,"Viti",,59.44509,24.37812,,,,4657
4658,21573-1,"Viti",,59.44517,24.37867,,,,4658
4659,21570-1,"Vääna-Jõesuu",,59.43357,24.36705,,,,4659
4660,21571-1,"Vääna-Jõesuu",,59.43330,24.36705,,,,4660
11833,21597-1,"Ranna tee",,59.42592,24.54305,,,,11833
11834,21598-1,"Ranna tee",,59.42577,24.54314,,,,11834
9453,21582-1,"Humala",,59.36766,24.40732,,,,9453
9454,21583-1,"Humala",,59.36742,24.40725,,,,9454
4701,21514-1,"Kütke",,59.34644,24.43205,,,,4701
4702,21515-1,"Kütke",,59.34669,24.43200,,,,4702
9457,21584-1,"Metsaküla",,59.34029,24.44810,,,,9457
9458,21585-1,"Metsaküla",,59.34011,24.44852,,,,9458
9451,21580-1,"Tõlinõmme",,59.38488,24.40040,,,,9451
9452,21581-1,"Tõlinõmme",,59.38462,24.40047,,,,9452
12114,21596-1,"Kumnamõisa",,59.32369,24.45157,,,,12114
150352,47228-1,"Kumnamõisa",,59.32303,24.45241,,,,6282
131414,21589-1,"Instituudi",,59.38958,24.57986,,,,3961
131415,21588-1,"Instituudi",,59.38863,24.57889,,,,3962
9470,23376-1,"Tammemäe",,59.37352,24.58472,,,,9470
5710,23331-1,"Uusküla",,59.37827,24.57933,,,,5710
5711,23332-1,"Uusküla",,59.37870,24.57884,,,,5711
131548,47201-1,"Muraste kool",,59.45754,24.44160,,,,3974
4680,21574-1,"Tuulepesa",,59.43034,24.47381,,,,4680
4681,21575-1,"Tuulepesa",,59.43031,24.47435,,,,4681
4684,21516-1,"Liikva",,59.42401,24.42216,,,,4684
4685,21517-1,"Liikva",,59.42398,24.42274,,,,4685
4682,21544-1,"Sõrve",,59.42992,24.45051,,,,4682
4683,21545-1,"Sõrve",,59.42986,24.44950,,,,4683
4678,21558-1,"Tuuleveski",,59.43332,24.49427,,,,4678
4679,21559-1,"Tuuleveski",,59.43369,24.49489,,,,4679
10463,21593-1,"Kooli",,59.42868,24.53707,,,,10463
11832,21599-1,"Kooli",,59.42787,24.53667,,,,11832
4705,21512-1,"Künka",,59.31881,24.45307,,,,4705
4706,21513-1,"Künka",,59.31764,24.45112,,,,4706
4703,21556-1,"Tutermaa",,59.32793,24.46823,,,,4703
4704,21557-1,"Tutermaa",,59.32876,24.46981,,,,4704
148041,47225-1,"Vana-Rannamõisa tee",,59.43245,24.59445,,,,5784
148042,47226-1,"Vana-Rannamõisa tee",,59.43326,24.59223,,,,5785
4647,21550-1,"Liivakivi tee",,59.46018,24.39270,,,,4647
4648,21551-1,"Liivakivi tee",,59.46000,24.39238,,,,4648
9721,21506-1,"Munakivi tee",,59.46866,24.39323,,,,9721
4645,21530-1,"Orava",,59.45596,24.39141,,,,4645
4646,21531-1,"Orava",,59.45618,24.39105,,,,4646
4652,21537-1,"Suurupi",,59.46633,24.38074,,,,4652
4650,21555-1,"Tuletorni",,59.46328,24.38460,,,,4650
4655,21543-1,"Viisu tee",,59.46330,24.38975,,,,4655
12201,47005-1,"Alasniidu tee",,59.41796,24.58739,,,,12201
12202,47006-1,"Alasniidu tee",,59.41720,24.58638,,,,12202
12203,47007-1,"Oja tee",,59.41466,24.58343,,,,12203
4792,21507-1,"Korvi",,59.31262,24.46454,,,,4792
4793,21508-1,"Korvi",,59.31320,24.46973,,,,4793
136157,47214-1,"Hallikivi",,59.41030,24.31448,,,,4182
136158,47215-1,"Hallikivi",,59.41014,24.31472,,,,4183
136447,47217-1,"Kevadvõtme",,59.40504,24.30901,,,,4600
136485,47216-1,"Kevadvõtme",,59.40500,24.30931,,,,4601
142808,47224-1,"Uue",,59.38606,24.57360,,,,5938
132213,47204-1,"Hindreku",,59.45555,24.40687,,,,4023
132218,47205-1,"Hindreku",,59.45553,24.40699,,,,4030
9126,21578-1,"Loigu",,59.39626,24.31679,,,,9126
9127,21579-1,"Loigu",,59.39578,24.31798,,,,9127
12041,21510-1,"Tisleri",,59.39696,24.36728,,,,12041
12115,21542-1,"Tisleri",,59.39692,24.36694,,,,12115
12233,21505-1,"Vääna",,59.38845,24.40775,,,,12233
13859,47010-1,"Vääna",,59.38828,24.40942,,,,13859
11962,21592-1,"Vääna mõis",,59.38831,24.41349,,,,11962
127079,24507-1,"Ellandvahe",,59.45960,25.14395,,,,88
12186,25602-1,"Haljava",,59.39826,25.18753,,,,12186
132017,24513-1,"Hõbemäe",,59.45456,25.10784,,,,3841
12154,47020-1,"Iru tee",,59.45837,24.91045,,,,12154
12155,47021-1,"Iru tee",,59.45843,24.91024,,,,12155
131776,24512-1,"Jõelähtme golfiväljak",,59.46924,25.14381,,,,3994
143163,26407-1,"Kadastiku",,59.52343,25.18573,,,,5962
143164,26408-1,"Kadastiku",,59.52335,25.18560,,,,5963
11898,24805-1,"Kaunissaare teerist",,59.43537,25.01703,,,,11898
14748,47022-1,"Kogre",,59.44852,24.97316,,,,14748
14749,47023-1,"Kogre",,59.44883,24.97396,,,,14749
11981,25303-1,"Kostivere kool",,59.42623,25.09120,,,,11981
12107,26801-1,"Kullamäe",,59.49456,25.31561,,,,12107
12142,25807-1,"Kuuse tee",,59.41718,25.23157,,,,12142
14742,47024-1,"Liivamäe",,59.44769,24.96369,,,,14742
14743,47025-1,"Liivamäe",,59.44766,24.96124,,,,14743
134596,25107-1,"Liivamäe keskus",,59.44149,24.96164,,,,4415
134928,25108-1,"Liivamäe keskus",,59.44154,24.96177,,,,4512
14738,47011-1,"Loo tee",,59.44458,24.92907,,,,14738
14739,47012-1,"Loo tee",,59.44382,24.92987,,,,14739
14740,47013-1,"Loovälja tee",,59.44554,24.93417,,,,14740
14741,47014-1,"Loovälja tee",,59.44548,24.93191,,,,14741
14753,47026-1,"Maardumõisa tee",,59.45211,25.01500,,,,14753
127076,24509-1,"Manniva",,59.47159,25.13002,,,,87
128879,47103-1,"Mäealuse tee",,59.47595,25.11817,,,,147
143165,26409-1,"Okka",,59.52321,25.17640,,,,5964
143166,26410-1,"Okka",,59.52314,25.17654,,,,5965
151316,27006-1,"Pansionaat",,59.50997,25.19047,,,,6341
151317,27007-1,"Pansionaat",,59.50991,25.19036,,,,6342
134063,24806-1,"Pohla",,59.42952,25.03212,,,,4253
130524,26406-1,"Punakivi",,59.49325,25.17863,,,,218
130525,26405-1,"Punakivi",,59.49447,25.17964,,,,219
129015,47104-1,"Põllu",,59.46050,24.91190,,,,152
129016,47105-1,"Põllu",,59.46051,24.91176,,,,153
14946,47030-1,"Rahvamaja",,59.44058,25.13758,,,,14946
11087,24506-1,"Rebala",,59.45958,25.08737,,,,11087
11088,24505-1,"Rebala",,59.45947,25.08764,,,,11088
146748,47106-1,"Rohkvahe",,59.46791,25.11128,,,,6148
127075,24510-1,"Sareta tee",,59.45885,25.11705,,,,86
131809,24106-1,"Saviranna tee",,59.50223,25.03996,,,,3996
14850,47033-1,"Teeristi",,59.43282,25.08231,,,,14850
14846,47034-1,"Uus-Rebala",,59.44734,25.10382,,,,14846
14971,47038-1,"Uus-Rebala",,59.44772,25.10164,,,,14971
130285,25104-1,"Vanasauna tee",,59.43095,24.96186,,,,212
133817,25105-1,"Vanasauna tee",,59.43101,24.96175,,,,3723
14440,24803-1,"Veski põik",,59.42544,25.04282,,,,14440
14442,47035-1,"Veski põik",,59.42531,25.04455,,,,14442
14744,47036-1,"Vibeliku",,59.44677,24.95097,,,,14744
14745,47037-1,"Vibeliku",,59.44674,24.95317,,,,14745
136278,25809-1,"Jõeääre",,59.42408,25.21461,,,,4591
136242,25808-1,"Raasiku tee",,59.41319,25.23369,,,,4583
5327,25601-1,"Haljava",,59.39843,25.18772,,,,5327
150111,47109-1,"Aia",,59.42940,25.10964,,,,6270
5480,25903-1,"Jõelähtme vallamaja",,59.44005,25.14495,,,,5480
5481,25904-1,"Jõelähtme vallamaja",,59.43980,25.14569,,,,5481
5476,26101-1,"Koeralooga",,59.44394,25.19238,,,,5476
5477,26102-1,"Koeralooga",,59.44362,25.19219,,,,5477
5478,26105-1,"Koogi kauplus",,59.44115,25.17012,,,,5478
5479,26106-1,"Koogi kauplus",,59.44102,25.17059,,,,5479
14844,47028-1,"Neeme tee",,59.45221,25.20069,,,,14844
14845,47029-1,"Neeme tee",,59.45117,25.19963,,,,14845
5472,26911-1,"Ruu",,59.45703,25.20983,,,,5472
5473,26912-1,"Ruu",,59.45708,25.21006,,,,5473
5470,26913-1,"Upsi",,59.45936,25.22798,,,,5470
5471,26914-1,"Upsi",,59.45925,25.22781,,,,5471
5329,25404-1,"Urke",,59.43370,25.11938,,,,5329
5330,25403-1,"Urke",,59.43514,25.12289,,,,5330
5373,25802-1,"Jägala jõgi",,59.42984,25.19238,,,,5373
5374,25801-1,"Jägala jõgi",,59.42992,25.19264,,,,5374
5302,38502-1,"Kehra tee",,59.40272,25.27441,,,,5302
5303,38501-1,"Kehra tee",,59.40325,25.27310,,,,5303
5377,25804-1,"Raasiku tee",,59.41344,25.23844,,,,5377
5378,25803-1,"Raasiku tee",,59.41443,25.23465,,,,5378
5376,25805-1,"Tammiku",,59.42304,25.20974,,,,5376
5464,26907-1,"Ihita",,59.48529,25.26017,,,,5464
5465,26908-1,"Ihita",,59.48595,25.26053,,,,5465
5466,26601-1,"Kaberneeme",,59.51040,25.26864,,,,5466
5468,26603-1,"Kaberneeme kauplus",,59.51771,25.27453,,,,5468
5462,26905-1,"Kalevi-Liiva",,59.47465,25.24915,,,,5462
5463,26906-1,"Kalevi-Liiva",,59.47488,25.24943,,,,5463
11900,24103-1,"Nõmme",,59.48290,25.03986,,,,11900
12547,24104-1,"Nõmme",,59.48283,25.04132,,,,12547
5496,24201-1,"Rüütli",,59.48568,25.06190,,,,5496
5497,24202-1,"Rüütli",,59.48574,25.06235,,,,5497
5494,24203-1,"Ülgase",,59.48752,25.07499,,,,5494
5495,24204-1,"Ülgase",,59.48743,25.07535,,,,5495
143122,26605-1,"Mäe tee",,59.50217,25.29063,,,,5960
143126,26604-1,"Mäe tee",,59.50213,25.29027,,,,5961
10922,26702-1,"Haapse",,59.50107,25.30534,,,,10922
10923,26701-1,"Haapse",,59.50062,25.30658,,,,10923
147228,47107-1,"Kanala",,59.41848,24.96371,,,,6180
147229,47108-1,"Kanala",,59.41857,24.96542,,,,6181
151431,27008-1,"Saha kabel",,59.42010,24.97612,,,,6343
151432,27009-1,"Saha kabel",,59.42012,24.97702,,,,6344
152373,25103-2,"Loo",,59.43499,24.94575,,,,6369
5344,25103-1,"Loo",,59.43493,24.94567,,,,5344
5337,24801-1,"Maardu mõis",,59.42550,25.01688,,,,5337
5338,24802-1,"Maardu mõis",,59.42549,25.01738,,,,5338
5339,24901-1,"Saha",,59.42496,24.99562,,,,5339
5340,24902-1,"Saha",,59.42529,24.99433,,,,5340
7130,24702-1,"Kostivere tee",,59.45048,25.05725,,,,7130
141062,27004-1,"Lõunakarjääri",,59.45106,25.03486,,,,5842
141063,27005-1,"Lõunakarjääri",,59.45085,25.03272,,,,5843
5323,25501-1,"Aruaru",,59.38581,25.16371,,,,5323
7428,25502-1,"Aruaru",,59.38630,25.16355,,,,7428
5331,25302-1,"Kostivere",,59.42847,25.09336,,,,5331
5332,25301-1,"Kostivere",,59.42887,25.09279,,,,5332
5361,24701-1,"Kostivere tee",,59.45070,25.05533,,,,5361
5325,25402-1,"Parasmäe",,59.41358,25.12305,,,,5325
5326,25401-1,"Parasmäe",,59.41408,25.12215,,,,5326
7474,24706-1,"Teeristi",,59.43289,25.08391,,,,7474
5333,24704-1,"Vandjala",,59.43933,25.07447,,,,5333
5334,24703-1,"Vandjala",,59.44024,25.07359,,,,5334
129252,24105-1,"Mäeotsa tee",,59.49885,25.04255,,,,174
139288,24205-1,"Koljunuki",,59.48925,25.08503,,,,5763
139289,24206-1,"Kostiranna",,59.48821,25.09176,,,,5764
5342,25102-1,"Lagedi mõis",,59.41622,24.94482,,,,5342
7173,25101-1,"Lagedi mõis",,59.41601,24.94465,,,,7173
5581,24002-1,"Lepalinnu",,59.47944,24.99095,,,,5581
5582,24001-1,"Lepalinnu",,59.47937,24.99169,,,,5582
5579,24003-1,"Vana-Muuga tee",,59.47931,24.99957,,,,5579
5580,24004-1,"Vana-Muuga tee",,59.47911,25.00048,,,,5580
5371,26107-1,"Jägala jõgi",,59.43530,25.19791,,,,5371
5372,26901-1,"Jägala jõgi",,59.43490,25.19634,,,,5372
5367,25902-1,"Jõelähtme",,59.43953,25.13985,,,,5367
5368,25901-1,"Jõelähtme",,59.43983,25.14032,,,,5368
5369,26104-1,"Koogi",,59.43549,25.16564,,,,5369
5370,26103-1,"Koogi",,59.43582,25.16557,,,,5370
5362,24401-1,"Kostivere tee",,59.45079,25.06396,,,,5362
9662,24402-1,"Kostivere tee",,59.45008,25.06991,,,,9662
5363,24502-1,"Linnake",,59.44727,25.09121,,,,5363
5364,24501-1,"Linnake",,59.44824,25.08701,,,,5364
5365,24504-1,"Männisalu",,59.44299,25.11811,,,,5365
5366,24503-1,"Männisalu",,59.44344,25.11737,,,,5366
10796,14308-1,"Pirita jõgi",,59.44468,24.91656,,,,10796
5379,26910-1,"Ruu mõis",,59.43619,25.21842,,,,5379
5380,26909-1,"Ruu mõis",,59.43647,25.21823,,,,5380
5359,24404-1,"Ületee",,59.45098,25.05095,,,,5359
5360,24403-1,"Ületee",,59.45136,25.04948,,,,5360
131496,24511-1,"Ristikangru",,59.47087,25.14701,,,,3973
131896,26915-1,"Metsaveere",,59.45131,25.19122,,,,635
12133,26404-1,"Ihasalu",,59.51912,25.19004,,,,12133
12134,26403-1,"Ihasalu",,59.51913,25.18996,,,,12134
5488,26401-1,"Ihasalu tee",,59.50034,25.18316,,,,5488
5489,26402-1,"Ihasalu tee",,59.50238,25.18454,,,,5489
5484,26301-1,"Jõesuu",,59.47192,25.15783,,,,5484
5485,26302-1,"Jõesuu",,59.47289,25.15656,,,,5485
5483,27002-1,"Jägala-Joa",,59.45558,25.17773,,,,5483
134024,27003-1,"Jägala-Joa",,59.45707,25.17776,,,,4251
5486,26304-1,"Metstoa",,59.47924,25.15710,,,,5486
5487,26303-1,"Metstoa",,59.47911,25.15753,,,,5487
5492,26502-1,"Neeme",,59.52869,25.15893,,,,5492
5474,26902-1,"Neeme tee",,59.45217,25.19924,,,,5474
5490,26503-1,"Pärnasalu",,59.51319,25.17077,,,,5490
5491,26504-1,"Pärnasalu",,59.51340,25.17052,,,,5491
14443,47031-1,"Rootsikari",,59.51395,25.19224,,,,14443
14444,47032-1,"Rootsikari",,59.51375,25.19238,,,,14444
128861,47101-1,"Nurme tee",,59.45356,24.91375,,,,145
128862,47102-1,"Nurme tee",,59.45343,24.91370,,,,146
12807,21832-1,"Eha",,59.30118,24.42419,,,,12807
12803,21837-1,"Jõe",,59.30489,24.42536,,,,12803
12806,21833-1,"Kase",,59.30100,24.41114,,,,12806
12045,21826-1,"Keila algkool",,59.31063,24.41380,,,,12045
129106,21845-1,"Keila algkool",,59.31052,24.41229,,,,165
14626,21839-1,"Keila kool",,59.31407,24.41236,,,,14626
136490,21851-1,"Keila kool",,59.31418,24.41198,,,,4217
129131,21847-1,"Luha",,59.31033,24.43061,,,,169
14105,21842-1,"Põhja",,59.31029,24.42511,,,,14105
134140,21850-1,"Sinilille",,59.32333,24.38759,,,,4265
126867,21844-1,"Sopsu-Tooma",,59.31174,24.40264,,,,84
4784,21816-1,"SOS lasteküla",,59.32502,24.37956,,,,4784
12810,21834-1,"Staadion/Keila haigla",,59.31346,24.40625,,,,12810
10756,21829-1,"Keila",,59.30620,24.41663,,,,10756
10757,21828-1,"Keila",,59.30610,24.41725,,,,10757
9509,21803-1,"Harju Elekter",,59.31977,24.40031,,,,9509
4799,21804-1,"Jaama",,59.30744,24.41449,,,,4799
4800,21805-1,"Jaama",,59.30728,24.41465,,,,4800
11541,21822-1,"Keskväljak",,59.30823,24.42190,,,,11541
11542,21823-1,"Männiku",,59.30768,24.40859,,,,11542
11543,21824-1,"Männiku",,59.30761,24.40972,,,,11543
4801,21813-1,"Rõõmu kaubamaja",,59.30776,24.39783,,,,4801
4802,21812-1,"Rõõmu kaubamaja",,59.30777,24.40099,,,,4802
10214,21818-1,"Keila raudteejaam",,59.30666,24.41770,,,,10214
4794,21806-1,"Keila kirik",,59.30792,24.42692,,,,4794
152369,21806-2,"Keila kirik",,59.30792,24.42691,,,,6365
152370,21806-3,"Keila kirik",,59.30792,24.42690,,,,6366
129132,21848-1,"Vaikne",,59.30911,24.40271,,,,170
129133,21849-1,"Vaikne",,59.30910,24.40260,,,,171
129130,21846-1,"Luha",,59.31063,24.43151,,,,168
136912,21852-1,"Keskväljak",,59.30875,24.42190,,,,4695
11540,21821-1,"Kultuurikeskus/Keskväljak",,59.30873,24.42171,,,,11540
4797,21808-1,"Pargi",,59.31151,24.41537,,,,4797
4798,21809-1,"Pargi",,59.31130,24.41540,,,,4798
11538,21819-1,"Tervisekeskus/Harju KEK",,59.31560,24.41197,,,,11538
11539,21820-1,"Tervisekeskus/Harju KEK",,59.31602,24.41173,,,,11539
126798,21843-1,"Piiri",,59.31134,24.41668,,,,66
12805,21830-1,"Aia",,59.30363,24.41429,,,,12805
12804,21831-1,"Tähe",,59.30361,24.41674,,,,12804
11544,21825-1,"Ülesõidu",,59.30342,24.42554,,,,11544
146090,22867-1,"Hobuse",,59.29144,24.15421,,,,6081
146107,23514-1,"Jaama pood",,59.23808,24.28915,,,,6096
146106,23515-1,"Jaama rist",,59.23768,24.29464,,,,6095
146104,23516-1,"Jaani rist",,59.24267,24.29967,,,,6094
146083,47406-1,"Karjaaia",,59.33639,24.24621,,,,6074
146103,23518-1,"Karlimetsa",,59.24378,24.27960,,,,6093
146097,22868-1,"Kase-Andrese",,59.23605,24.01990,,,,6087
146123,22869-1,"Kinksi",,59.22206,24.10828,,,,6107
146085,47407-1,"Klooga kool",,59.32035,24.23336,,,,6076
128744,21796-1,"Kloogaranna rongijaam",,59.34477,24.24820,,,,24
146081,47414-1,"Kõviste",,59.33531,24.27988,,,,6072
146096,22874-1,"Kärre",,59.27625,24.02892,,,,6086
146086,47423-1,"Lodijärve",,59.30676,24.24416,,,,6077
146117,23517-1,"Mardi",,59.24281,24.29786,,,,6102
146108,47419-1,"Metsa-Uuetoa",,59.33728,24.37457,,,,6097
146094,22919-1,"Nikolai kirik",,59.35136,24.05332,,,,6084
146088,47417-1,"Põllküla jaam",,59.32952,24.17208,,,,6079
146102,23520-1,"Pärniti",,59.23138,24.21765,,,,6092
146101,23519-1,"Rummu-Sireli",,59.23200,24.19941,,,,6091
146115,47421-1,"Tamme tee",,59.30504,24.38321,,,,6101
146089,47418-1,"Tammi",,59.30667,24.17698,,,,6080
146095,22873-1,"Veti",,59.25483,24.17231,,,,6085
146087,47416-1,"Väike-Kadri",,59.32064,24.18040,,,,6078
10767,21776-1,"Klooga",,59.32046,24.25826,,,,10767
10768,21777-1,"Klooga",,59.32031,24.25898,,,,10768
10777,21778-1,"Klooga aedlinn",,59.32447,24.21827,,,,10777
10778,21779-1,"Klooga aedlinn",,59.32463,24.21724,,,,10778
94013,21780-1,"Kloogaranna",,59.34379,24.24595,,,,16
94014,21793-1,"Kloogaranna",,59.34350,24.24584,,,,17
12307,21781-1,"Kulna",,59.28632,24.35439,,,,12307
12308,21782-1,"Kulna",,59.28625,24.35444,,,,12308
10785,22907-1,"Laoküla",,59.33323,24.13445,,,,10785
10786,22908-1,"Laoküla",,59.33317,24.13454,,,,10786
10763,21783-1,"Niitvälja",,59.31408,24.32034,,,,10763
10764,21784-1,"Niitvälja",,59.31397,24.32076,,,,10764
10781,21786-1,"Põllküla",,59.32907,24.17417,,,,10781
10782,21785-1,"Põllküla",,59.32899,24.17433,,,,10782
10577,21774-1,"Klooga pood",,59.32107,24.22586,,,,10577
142873,47403-1,"Klooga pood",,59.32090,24.22719,,,,5944
146118,22863-1,"Mäeklause",,59.21947,24.04060,,,,6103
126759,21794-1,"Tammermaa tee",,59.30291,24.38395,,,,62
9714,21771-1,"Talu tee",,59.33396,24.39877,,,,9714
4773,21718-1,"Kulna",,59.29450,24.34242,,,,4773
4774,21719-1,"Kulna",,59.29471,24.34282,,,,4774
4775,21724-1,"Lehola",,59.29006,24.33132,,,,4775
4776,21725-1,"Lehola",,59.29030,24.33295,,,,4776
4778,21730-1,"Luuri",,59.27965,24.30659,,,,4778
4779,21731-1,"Luuri",,59.28002,24.30821,,,,4779
4780,21732-1,"Maeru",,59.26476,24.29153,,,,4780
4781,21733-1,"Maeru",,59.26654,24.29193,,,,4781
4771,21747-1,"Pusuvälja",,59.30520,24.37300,,,,4771
4772,21746-1,"Pusuvälja",,59.30526,24.37516,,,,4772
4782,21761-1,"Viigardi",,59.25281,24.28335,,,,4782
4783,21762-1,"Viigardi",,59.25346,24.28403,,,,4783
9687,21766-1,"Karjaküla kalmistu",,59.33247,24.37263,,,,9687
9712,21767-1,"Karjaküla kalmistu",,59.33253,24.37242,,,,9712
4756,21721-1,"Käesalu",,59.37570,24.30933,,,,4756
4757,21720-1,"Käesalu",,59.37541,24.30959,,,,4757
4758,21738-1,"Muuluka",,59.36008,24.33859,,,,4758
4759,21739-1,"Muuluka",,59.36030,24.33856,,,,4759
4760,21755-1,"Tõmmiku",,59.34734,24.35560,,,,4760
4761,21756-1,"Tõmmiku",,59.34761,24.35539,,,,4761
10575,21772-1,"Klooga raudteejaam",,59.32081,24.25799,,,,10575
10576,21773-1,"Klooga raudteejaam",,59.32081,24.25760,,,,10576
4674,21736-1,"Internaatkool",,59.40462,24.29854,,,,4674
4675,21737-1,"Internaatkool",,59.40573,24.29777,,,,4675
4672,21709-1,"Keila-Joa",,59.39565,24.30084,,,,4672
4673,21708-1,"Keila-Joa",,59.39493,24.29956,,,,4673
137889,47402-1,"Keila-Joa mõis",,59.39500,24.29860,,,,31
4744,21714-1,"Kloogaranna noortelaager",,59.35260,24.25897,,,,4744
4745,21715-1,"Kloogaranna noortelaager",,59.35171,24.25956,,,,4745
4670,21763-1,"Kungla",,59.39466,24.28156,,,,4670
4671,21764-1,"Kungla",,59.39425,24.28309,,,,4671
4742,21749-1,"Kõltsu mõis",,59.36202,24.25465,,,,4742
4743,21748-1,"Kõltsu mõis",,59.36278,24.25384,,,,4743
4740,21722-1,"Laulasmaa",,59.37819,24.23807,,,,4740
130280,21795-1,"Laulasmaa",,59.37975,24.23747,,,,210
4741,21723-1,"Laulasmaa kool",,59.37475,24.24263,,,,4741
130281,21701-1,"Laulasmaa kool",,59.37575,24.24071,,,,211
4667,21735-1,"Meremõisa",,59.39682,24.27325,,,,4667
4669,21734-1,"Meremõisa",,59.39603,24.27552,,,,4669
13263,21789-1,"Raudkotka",,59.34265,24.26723,,,,13263
13264,21790-1,"Raudkotka",,59.34253,24.26676,,,,13264
4736,21751-1,"Tornimäe",,59.38567,24.23673,,,,4736
4737,21752-1,"Tornimäe",,59.38590,24.23721,,,,4737
4746,21753-1,"Treppoja",,59.34480,24.26812,,,,4746
4747,21754-1,"Treppoja",,59.34533,24.26844,,,,4747
4676,21757-1,"Türisalu",,59.41075,24.30120,,,,4676
4677,21758-1,"Türisalu",,59.41084,24.30227,,,,4677
13350,21791-1,"Vääna tee",,59.39919,24.30249,,,,13350
13351,21792-1,"Vääna tee",,59.39855,24.30301,,,,13351
4734,21702-1,"Heliküla",,59.38789,24.22111,,,,4734
4735,21703-1,"Heliküla",,59.38813,24.22049,,,,4735
4730,21726-1,"Lohusalu",,59.39597,24.20227,,,,4730
4731,21727-1,"Lohusalu",,59.39598,24.20215,,,,4731
4729,21728-1,"Lohusalu sadam",,59.40102,24.20167,,,,4729
130279,21707-1,"Lohusalu tee",,59.37727,24.23770,,,,209
4732,21742-1,"Pansionaat",,59.39081,24.21299,,,,4732
4733,21743-1,"Pansionaat",,59.39101,24.21229,,,,4733
4738,21744-1,"Puhkekodu",,59.38076,24.23282,,,,4738
4739,21745-1,"Puhkekodu",,59.38157,24.23209,,,,4739
146788,47424-1,"Karjaküla",,59.33892,24.39104,,,,6150
9688,21768-1,"Uuetoa",,59.33639,24.37335,,,,9688
9713,21769-1,"Uuetoa",,59.33656,24.37373,,,,9713
10364,21706-1,"Karjaküla",,59.33892,24.39094,,,,10364
152088,22920-1,"Mereääre",,59.32890,24.10994,,,,6359
134590,21729-1,"Adruvahi",,59.33785,24.22503,,,,4412
134591,21799-1,"Adruvahi",,59.33742,24.22818,,,,4413
4764,21710-1,"Aida",,59.33965,24.20710,,,,4764
4765,21711-1,"Aida",,59.33938,24.20792,,,,4765
132787,21797-1,"Benita kodu",,59.33008,24.34734,,,,3478
132788,21798-1,"Benita kodu",,59.33005,24.34562,,,,4082
4788,21810-1,"Ehitusmarket",,59.31988,24.40366,,,,4788
4789,21811-1,"Ehitusmarket",,59.31920,24.40521,,,,4789
4752,21704-1,"Illuka",,59.32859,24.30207,,,,4752
4753,21705-1,"Illuka",,59.32803,24.30342,,,,4753
12413,21787-1,"Kersalu",,59.34294,24.19444,,,,12413
12414,21788-1,"Kersalu",,59.34231,24.19624,,,,12414
13435,22854-1,"Laoküla",,59.32707,24.11823,,,,13435
13856,22855-1,"Laoküla",,59.32609,24.11944,,,,13856
4786,21814-1,"Mudaaugu",,59.32665,24.37638,,,,4786
4787,21765-1,"Mudaaugu",,59.32646,24.37817,,,,4787
4754,21740-1,"Niitvälja",,59.32819,24.32668,,,,4754
4755,21741-1,"Niitvälja",,59.32871,24.32964,,,,4755
4748,21712-1,"Treppoja rist",,59.34112,24.26728,,,,4748
4749,21713-1,"Treppoja rist",,59.34142,24.26537,,,,4749
4750,21759-1,"Türnpu park",,59.33556,24.28232,,,,4750
4751,21760-1,"Türnpu park",,59.33626,24.27965,,,,4751
4767,21717-1,"Vanaranna tee",,59.34482,24.18551,,,,4767
150838,22072-1,"Kuu",,59.31728,24.76719,,,,6326
150840,22073-1,"Kuu",,59.31679,24.76744,,,,6328
150837,22071-1,"Saustimõisa",,59.30708,24.78473,,,,6325
150839,22070-1,"Saustimõisa",,59.30771,24.78701,,,,6327
12988,22053-1,"Kangru",,59.35384,24.77397,,,,12988
14571,22062-1,"Kiili kool",,59.30270,24.84286,,,,14571
152489,22062-2,"Kiili kool",,59.30264,24.84296,,,,6374
5062,22009-1,"Kurna tee",,59.33215,24.82320,,,,5062
5059,22011-1,"Lauri",,59.34316,24.80811,,,,5059
5073,22014-1,"Lähtse",,59.29413,24.85184,,,,5073
14569,22063-1,"Maksima",,59.30988,24.83271,,,,14569
14570,22064-1,"Maksima",,59.31052,24.83174,,,,14570
5074,22024-1,"Paali",,59.28474,24.87603,,,,5074
140531,22067-1,"Siberi",,59.25941,24.88494,,,,5824
140532,22066-1,"Siberi",,59.25963,24.88518,,,,5825
137118,22065-1,"Sõmeru küla",,59.23964,24.91138,,,,2385
140533,22068-1,"Toominga",,59.24521,24.89866,,,,5826
140534,22069-1,"Toominga",,59.24535,24.89816,,,,5827
5068,22008-1,"Kiili",,59.30777,24.83796,,,,5068
5069,22007-1,"Kiili",,59.30767,24.83764,,,,5069
5058,22012-1,"Lauri",,59.34248,24.80794,,,,5058
5072,22013-1,"Lähtse",,59.29305,24.85346,,,,5072
5054,22005-1,"Metsavahi",,59.34753,24.80083,,,,5054
5055,22006-1,"Metsavahi",,59.34810,24.79943,,,,5055
5066,22032-1,"Miku tee",,59.32188,24.81818,,,,5066
5067,22031-1,"Miku tee",,59.32293,24.81885,,,,5067
5076,22016-1,"Nabala",,59.27518,24.87461,,,,5076
5077,22015-1,"Nabala",,59.27519,24.87474,,,,5077
5064,22042-1,"Oti",,59.32680,24.82056,,,,5064
5065,22041-1,"Oti",,59.32809,24.82145,,,,5065
5075,22023-1,"Paali",,59.28491,24.87618,,,,5075
5060,22044-1,"Ööbiku",,59.33849,24.81352,,,,5060
5061,22043-1,"Ööbiku",,59.33861,24.81264,,,,5061
5045,22020-1,"Kangru",,59.35428,24.77257,,,,5045
5048,22040-1,"Luige",,59.33226,24.77342,,,,5048
5049,22039-1,"Luige",,59.33325,24.77392,,,,5049
5046,22036-1,"Mareti",,59.34588,24.77402,,,,5046
5047,22035-1,"Mareti",,59.34741,24.77433,,,,5047
5044,22019-1,"Nabala tee",,59.35285,24.77326,,,,5044
5051,22027-1,"Sausti",,59.31958,24.76348,,,,5051
12986,22054-1,"Tammejärve",,59.33926,24.77385,,,,12986
12987,22055-1,"Tammejärve",,59.33955,24.77408,,,,12987
9792,22046-1,"Ringtee",,59.32660,24.77853,,,,9792
9793,22047-1,"Ringtee",,59.32513,24.77529,,,,9793
5082,22003-1,"Arusta",,59.26300,24.81835,,,,5082
5083,22004-1,"Arusta",,59.26277,24.81912,,,,5083
5084,22022-1,"Nõmmiku",,59.26564,24.80140,,,,5084
5085,22021-1,"Nõmmiku",,59.26561,24.80144,,,,5085
5080,22018-1,"Paekna",,59.26320,24.83706,,,,5080
5081,22017-1,"Paekna",,59.26300,24.83773,,,,5081
5078,22026-1,"Piissoo",,59.26218,24.86124,,,,5078
5079,22025-1,"Piissoo",,59.26221,24.86192,,,,5079
5087,22033-1,"Sookaera",,59.26842,24.78877,,,,5087
147071,22389-1,"Allikmäe",,59.19305,24.99990,,,,6169
147098,22390-1,"Allikmäe",,59.19301,24.99993,,,,6174
149302,22397-1,"Ardu kauplus",,59.09962,25.35944,,,,855
132223,22349-1,"Ardu kool",,59.10206,25.35747,,,,4032
131128,22348-1,"Harmi kool",,59.11761,25.20250,,,,81
134762,22355-1,"Harmi kool",,59.11754,25.20256,,,,4458
147281,22396-1,"Kangru",,59.19443,25.03153,,,,6187
5101,22103-1,"Kata",,59.19608,24.97027,,,,5101
5102,22104-1,"Kata",,59.19669,24.97019,,,,5102
136747,22375-1,"Kivisepa",,59.21575,25.22191,,,,4623
133901,22196-1,"Kivivõhma",,59.21411,25.13342,,,,4246
129598,22105-1,"Kolu 1",,59.19227,25.04449,,,,184
129600,22106-1,"Kolu 4",,59.19364,25.04655,,,,186
128610,22183-1,"Kose algkool",,59.18450,25.16140,,,,133
12035,22167-1,"Kose gümnaasium",,59.18498,25.16569,,,,12035
149521,22398-1,"Kose-Risti parkla",,59.16436,25.18870,,,,6245
135146,22360-1,"Külakeskuse",,59.21657,25.19302,,,,4530
136744,22372-1,"Külakeskuse",,59.21638,25.19309,,,,4619
150630,22405-1,"Maanteeääre",,59.16469,25.24775,,,,6299
14574,22178-1,"Palvere",,59.20727,25.25711,,,,14574
14575,22179-1,"Palvere",,59.20734,25.25704,,,,14575
129566,22144-1,"Saula",,59.22098,25.03366,,,,182
129567,22143-1,"Saula",,59.22103,25.03658,,,,183
135142,22364-1,"Silmsi",,59.11717,25.31292,,,,4526
138864,22377-1,"Tade",,59.18548,25.09406,,,,1767
149908,22404-1,"Vahtra",,59.22346,25.21607,,,,6260
127554,22182-1,"Vana tee",,59.21179,25.19890,,,,93
12105,22166-1,"Vilama",,59.20053,25.29092,,,,12105
149907,22403-1,"Väljaotsa",,59.19367,25.09099,,,,6259
136531,22369-1,"Kirimäe",,59.15751,25.12646,,,,4596
129603,22118-1,"Kurena 2",,59.18293,25.08400,,,,189
135440,22365-1,"Saula küla",,59.20167,25.02819,,,,4551
135140,22358-1,"Kanavere",,59.17186,25.05844,,,,4524
135141,22359-1,"Kanavere",,59.17181,25.05825,,,,4525
133896,22194-1,"Nõrava",,59.16642,25.02156,,,,4244
136746,22374-1,"Nõrava",,59.16633,25.02181,,,,4621
133892,22376-1,"Võivere",,59.18603,24.96064,,,,4243
5116,22111-1,"Kose-Uuemõisa",,59.20160,25.10393,,,,5116
128403,22341-1,"Alansi",,59.12553,25.14044,,,,117
128405,22342-1,"Alansi",,59.12517,25.14128,,,,119
128404,22343-1,"Kirivalla",,59.12769,25.11122,,,,118
128406,22344-1,"Kirivalla",,59.12775,25.11244,,,,120
134760,22351-1,"Kuusiku",,59.13750,25.08525,,,,4442
134761,22352-1,"Kuusiku",,59.13739,25.08578,,,,4454
129606,22188-1,"Kurena 5",,59.18211,25.08222,,,,192
129599,22184-1,"Kolu 2",,59.19033,25.04426,,,,185
129601,22185-1,"Kolu 3",,59.19031,25.04376,,,,187
5099,22134-1,"Pärtlimäe",,59.20346,24.95261,,,,5099
5100,22133-1,"Pärtlimäe",,59.20399,24.95091,,,,5100
5105,22146-1,"Sepiku",,59.18578,25.02494,,,,5105
5106,22145-1,"Sepiku",,59.18574,25.02560,,,,5106
5141,22102-1,"Ahisilla",,59.19510,25.18515,,,,5141
5142,22101-1,"Ahisilla",,59.19433,25.18536,,,,5142
129609,22115-1,"Kuivajõe 3",,59.18201,25.11985,,,,195
5133,22120-1,"Lendermaa",,59.23354,25.28430,,,,5133
5134,22119-1,"Lendermaa",,59.23389,25.28514,,,,5134
5135,22130-1,"Palvere tee",,59.22172,25.25064,,,,5135
5136,22129-1,"Palvere tee",,59.22180,25.25364,,,,5136
5139,22131-1,"Pikavere tee",,59.20573,25.18463,,,,5139
5140,22132-1,"Pikavere tee",,59.20687,25.18598,,,,5140
5117,22150-1,"Tindimäe",,59.18403,25.12923,,,,5117
5118,22149-1,"Tindimäe",,59.18402,25.13091,,,,5118
5137,22156-1,"Viskla",,59.21241,25.20513,,,,5137
5138,22155-1,"Viskla",,59.21260,25.20687,,,,5138
5156,22304-1,"Habaja",,59.10717,25.16722,,,,5156
5157,22303-1,"Habaja",,59.10710,25.16734,,,,5157
5121,22157-1,"Kose kalmistu",,59.17600,25.16968,,,,5121
5122,22158-1,"Kose kalmistu",,59.17701,25.16959,,,,5122
9836,22161-1,"Kose-Risti 3",,59.16710,25.17619,,,,9836
9837,22162-1,"Kose-Risti 4",,59.16726,25.17629,,,,9837
146556,22381-1,"Marguse",,59.15157,25.19553,,,,6131
146558,22382-1,"Marguse",,59.15142,25.19544,,,,6132
5152,22318-1,"Ojasoo",,59.12937,25.20448,,,,5152
5153,22317-1,"Ojasoo",,59.12899,25.20468,,,,5153
5150,22325-1,"Sange",,59.14482,25.20172,,,,5150
5151,22326-1,"Sange",,59.14536,25.20160,,,,5151
5158,22328-1,"Saumetsa",,59.08967,25.17498,,,,5158
5159,22327-1,"Saumetsa",,59.08982,25.17494,,,,5159
5154,22336-1,"Äksi",,59.11800,25.17061,,,,5154
5155,22335-1,"Äksi",,59.11789,25.17075,,,,5155
127553,22181-1,"Palvere teerist",,59.22126,25.25214,,,,92
5147,22135-1,"Ravila",,59.18508,25.22143,,,,5147
5148,22136-1,"Ravila",,59.18492,25.22115,,,,5148
5145,22154-1,"Toomingamäe",,59.18400,25.19541,,,,5145
5146,22153-1,"Toomingamäe",,59.18404,25.19590,,,,5146
5143,22142-1,"Sanatooriumi",,59.18566,25.18044,,,,5143
5144,22141-1,"Sanatooriumi",,59.18547,25.18025,,,,5144
10109,22108-1,"Kose 1",,59.18595,25.16616,,,,10109
9775,22107-1,"Kose 2",,59.18599,25.16632,,,,9775
13415,22173-1,"Karla",,59.16653,25.12472,,,,13415
129608,22189-1,"Kuivajõe 2",,59.18066,25.11945,,,,194
5113,22114-1,"Krei",,59.19058,25.11236,,,,5113
5114,22113-1,"Krei",,59.19096,25.11218,,,,5114
129610,22190-1,"Kuivajõe 4",,59.18236,25.11805,,,,196
129611,22164-1,"Kuivajõe 5",,59.18549,25.11601,,,,197
129612,22163-1,"Kuivajõe 6",,59.18524,25.11580,,,,198
13409,22174-1,"Sepa",,59.17816,25.09979,,,,13409
13410,22175-1,"Sepa",,59.17801,25.10003,,,,13410
129718,22172-1,"Liiva",,59.17653,25.14483,,,,200
129613,22191-1,"Kuivajõe 7",,59.18505,25.11541,,,,199
129607,22116-1,"Kuivajõe 1",,59.18177,25.11595,,,,193
129605,22187-1,"Kurena 4",,59.18150,25.08318,,,,191
5170,22306-1,"Jaagu",,59.05669,25.26427,,,,5170
5171,22305-1,"Jaagu",,59.05649,25.26494,,,,5171
5172,22320-1,"Paunaste",,59.07770,25.25485,,,,5172
5173,22319-1,"Paunaste",,59.07955,25.25578,,,,5173
5169,22334-1,"Virla",,59.04820,25.25688,,,,5169
131474,22347-1,"Rava",,59.09812,25.28443,,,,3967
131475,22346-1,"Rava",,59.09803,25.28525,,,,3968
6769,22309-1,"Kõue",,59.08603,25.24006,,,,6769
5164,22312-1,"Kõue mõis",,59.09795,25.24285,,,,5164
5165,22311-1,"Kõue mõis",,59.09771,25.24308,,,,5165
5166,22316-1,"Kõue tee",,59.09295,25.25821,,,,5166
5167,22315-1,"Kõue tee",,59.09367,25.26017,,,,5167
5160,22323-1,"Riidamäe",,59.11771,25.22470,,,,5160
5161,22324-1,"Riidamäe",,59.11786,25.22420,,,,5161
5162,22330-1,"Sääsküla",,59.10753,25.23386,,,,5162
5163,22329-1,"Sääsküla",,59.10733,25.23465,,,,5163
135143,22362-1,"Kiruvere",,59.12163,25.36172,,,,4527
135144,22363-1,"Kiruvere",,59.12186,25.36117,,,,4528
130577,22345-1,"Paunküla kauplus",,59.14219,25.32561,,,,224
149522,22399-1,"Tori",,59.12907,25.34076,,,,6246
149523,22400-1,"Tori",,59.12860,25.34192,,,,6247
134764,22353-1,"Sae",,59.15788,25.30628,,,,4460
134765,22354-1,"Sae",,59.15807,25.30587,,,,4461
133897,22195-1,"Nõrava tee",,59.17447,25.02158,,,,4245
136530,22368-1,"Nõrava tee",,59.17440,25.02126,,,,4595
129602,22117-1,"Kurena 1",,59.18343,25.08187,,,,188
5182,22302-1,"Ardu",,59.10301,25.35956,,,,5182
5183,22301-1,"Ardu",,59.10286,25.35993,,,,5183
5124,22109-1,"Kose-Risti 1",,59.16668,25.17623,,,,5124
5123,22110-1,"Kose-Risti 2",,59.16693,25.17588,,,,5123
5180,22308-1,"Kurgemäe",,59.10662,25.32475,,,,5180
5181,22307-1,"Kurgemäe",,59.10707,25.32443,,,,5181
5176,22322-1,"Paunküla",,59.14115,25.31743,,,,5176
5177,22321-1,"Paunküla",,59.14225,25.31642,,,,5177
5129,22137-1,"Raveliku",,59.16191,25.23645,,,,5129
5130,22138-1,"Raveliku",,59.16197,25.23704,,,,5130
5125,22140-1,"Ravila tee",,59.16070,25.21151,,,,5125
5126,22139-1,"Ravila tee",,59.16170,25.20582,,,,5126
11724,22339-1,"Rõõsa",,59.15339,25.29431,,,,11724
11725,22340-1,"Rõõsa",,59.15367,25.29417,,,,11725
5131,22148-1,"Sõmeru",,59.16603,25.27050,,,,5131
5132,22147-1,"Sõmeru",,59.16594,25.27197,,,,5132
5178,22331-1,"Veehoidla",,59.12757,25.31951,,,,5178
5179,22332-1,"Veehoidla",,59.12716,25.31958,,,,5179
134763,22350-1,"Kõue tee",,59.09244,25.25710,,,,4459
5174,22314-1,"Kõue",,59.08607,25.24130,,,,5174
5175,22313-1,"Kõue",,59.08582,25.23931,,,,5175
134521,22198-1,"Kataveski",,59.20457,24.97013,,,,4392
138865,22378-1,"Tõnuküla tee",,59.19204,25.06018,,,,1778
138866,22379-1,"Tõnuküla tee",,59.19200,25.06001,,,,4770
5095,22122-1,"Metsaküla",,59.21521,24.95340,,,,5095
5096,22121-1,"Metsaküla",,59.21498,24.95321,,,,5096
5097,22124-1,"Nõmme",,59.20744,24.94185,,,,5097
5098,22123-1,"Nõmme",,59.20763,24.94262,,,,5098
5091,22128-1,"Otiveski",,59.22719,24.99887,,,,5091
5092,22127-1,"Otiveski",,59.22708,25.00096,,,,5092
5093,22151-1,"Tuhala",,59.22506,24.96754,,,,5093
5094,22152-1,"Tuhala",,59.22535,24.96725,,,,5094
136409,22366-1,"Männimäe",,59.19325,24.97425,,,,4597
136410,22367-1,"Männimäe",,59.19359,24.97392,,,,4598
13250,22168-1,"Oru",,59.18907,24.98979,,,,13250
13252,22169-1,"Oru",,59.18916,24.98878,,,,13252
10116,22165-1,"Ravila tee",,59.16143,25.21017,,,,10116
135147,22361-1,"Ravila tee",,59.16150,25.21058,,,,4540
5127,22159-1,"Vardja",,59.17045,25.21089,,,,5127
5128,22160-1,"Vardja",,59.17068,25.21124,,,,5128
13383,22177-1,"Viskla õpilased",,59.23268,25.17296,,,,13383
146492,34503-1,"Bueri talu",,59.46114,25.42591,,,,6123
129051,33203-1,"Juminda tee",,59.60610,25.51549,,,,162
129052,33202-1,"Juminda tee",,59.60602,25.51490,,,,163
5387,28703-1,"Kiiu mõis",,59.44670,25.38345,,,,5387
136673,28707-1,"Kiiu mõis",,59.44689,25.38312,,,,4618
12156,28104-1,"Kodasoo küla",,59.44602,25.27304,,,,12156
12157,28103-1,"Kodasoo küla",,59.44590,25.27270,,,,12157
12545,30607-1,"Kuusalu keskus",,59.44547,25.43548,,,,12545
11632,29005-1,"Kuusalu kool",,59.45201,25.41683,,,,11632
24639,5900779-1,"Tammispea",,59.55795,25.82967,,,,24639
125894,5901023-1,"Tammispea",,59.55741,25.82855,,,,23
129049,33502-1,"Tapurla",,59.60058,25.55384,,,,160
129050,33503-1,"Tapurla",,59.60056,25.55335,,,,161
129047,32811-1,"Virve",,59.58881,25.59569,,,,158
129048,32812-1,"Virve",,59.58862,25.59594,,,,159
128832,29312-1,"Kahala küla",,59.47077,25.52914,,,,141
128833,29313-1,"Kahala küla",,59.47010,25.52682,,,,142
130488,29105-1,"Leesi teerist",,59.45793,25.45099,,,,214
5456,28002-1,"Haavakannu",,59.46886,25.28193,,,,5456
5457,28001-1,"Haavakannu",,59.46893,25.28147,,,,5457
5458,28004-1,"Kaberla",,59.46815,25.25364,,,,5458
5459,28003-1,"Kaberla",,59.46826,25.25569,,,,5459
5406,29303-1,"Kahala kauplus",,59.47166,25.56076,,,,5406
5407,29304-1,"Kahala kauplus",,59.47155,25.56045,,,,5407
5420,29307-1,"Kahala-Liiva",,59.46605,25.50802,,,,5420
5421,29308-1,"Kahala-Liiva",,59.46622,25.50884,,,,5421
5408,29309-1,"Kalamäe",,59.47394,25.54461,,,,5408
5409,29310-1,"Kalamäe",,59.47381,25.54637,,,,5409
5434,28701-1,"Kiiu",,59.45193,25.38260,,,,5434
5435,28702-1,"Kiiu",,59.45183,25.38339,,,,5435
5460,28005-1,"Kääniku",,59.46399,25.23903,,,,5460
5461,28006-1,"Kääniku",,59.46392,25.23911,,,,5461
5454,28451-1,"Lamme",,59.46745,25.31561,,,,5454
5455,28452-1,"Lamme",,59.46750,25.31515,,,,5455
5403,30102-1,"Mustametsa",,59.47258,25.58900,,,,5403
5404,30101-1,"Mustametsa",,59.47259,25.58727,,,,5404
5401,30006-1,"Männiku",,59.47575,25.60983,,,,5401
5402,30005-1,"Männiku",,59.47558,25.60799,,,,5402
5432,29003-1,"Rihumägi",,59.45238,25.41492,,,,5432
5433,29004-1,"Rihumägi",,59.45246,25.41609,,,,5433
5422,29103-1,"Sõitme",,59.45840,25.47567,,,,5422
5423,29104-1,"Sõitme",,59.45833,25.47616,,,,5423
5436,28454-1,"Valkla",,59.45733,25.35213,,,,5436
5437,28453-1,"Valkla",,59.45741,25.35275,,,,5437
133660,30608-1,"Kuusalu rahvamaja",,59.44517,25.44742,,,,4001
5388,28705-1,"Kiiu viadukt",,59.44596,25.37769,,,,5388
9693,28706-1,"Kiiu viadukt",,59.44417,25.37611,,,,9693
5438,28417-1,"Jaanukse",,59.46616,25.36308,,,,5438
5439,28418-1,"Jaanukse",,59.46700,25.36235,,,,5439
138366,28105-1,"Jõe",,59.44814,25.27139,,,,5655
138657,28106-1,"Jõe",,59.44811,25.27115,,,,5701
5405,30002-1,"Kolga",,59.49084,25.61344,,,,5405
7505,30001-1,"Kolga",,59.49054,25.61238,,,,7505
5427,30602-1,"Kuusalu tee",,59.45005,25.43108,,,,5427
5430,30604-1,"Kuusalu tee",,59.44747,25.43207,,,,5430
5429,30601-1,"Kuusalu keskus",,59.44551,25.43435,,,,5429
152372,30601-2,"Kuusalu keskus",,59.44547,25.43451,,,,6368
5426,29001-1,"Kuusalu küla",,59.45269,25.43308,,,,5426
5418,29211-1,"Kalda",,59.47957,25.46621,,,,5418
5419,29212-1,"Kalda",,59.47971,25.46692,,,,5419
5530,33101-1,"Kiiu-Aabla",,59.58429,25.51399,,,,5530
5531,33102-1,"Kiiu-Aabla",,59.58429,25.51425,,,,5531
5534,33001-1,"Kolga-Aabla",,59.56396,25.53499,,,,5534
5535,33002-1,"Kolga-Aabla",,59.56429,25.53482,,,,5535
5529,33201-1,"Leesi",,59.60425,25.49860,,,,5529
5416,29401-1,"Loo",,59.48994,25.47885,,,,5416
5417,29402-1,"Loo",,59.49027,25.47913,,,,5417
5532,33003-1,"Mereranna",,59.57644,25.52714,,,,5532
5533,33004-1,"Mereranna",,59.57629,25.52735,,,,5533
5414,29601-1,"Muuksi",,59.50414,25.51871,,,,5414
5415,29602-1,"Muuksi",,59.50445,25.51922,,,,5415
5536,32901-1,"Pedaspea",,59.54529,25.56228,,,,5536
5537,32902-1,"Pedaspea",,59.54536,25.56240,,,,5537
5410,29902-1,"Pudisoo",,59.51947,25.55452,,,,5410
5411,29901-1,"Pudisoo",,59.51930,25.55476,,,,5411
5424,29101-1,"Raja",,59.46710,25.44889,,,,5424
5425,29102-1,"Raja",,59.46741,25.44924,,,,5425
5412,29701-1,"Tsitre",,59.51507,25.52566,,,,5412
5413,29702-1,"Tsitre",,59.51495,25.52626,,,,5413
11089,28801-1,"Allika küla",,59.46146,25.41306,,,,11089
11090,28802-1,"Allika küla",,59.46178,25.41312,,,,11090
11091,28902-1,"Põhja küla",,59.48253,25.41100,,,,11091
11092,28901-1,"Põhja küla",,59.48277,25.41065,,,,11092
5440,28502-1,"Salmistu",,59.49299,25.37538,,,,5440
5441,28501-1,"Salmistu",,59.49290,25.37546,,,,5441
5508,32701-1,"Kolgaküla",,59.52466,25.69729,,,,5508
5509,32702-1,"Kolgaküla",,59.52478,25.69777,,,,5509
5512,33702-1,"Kotka",,59.54162,25.73645,,,,5512
5513,33703-1,"Kotka",,59.54214,25.73656,,,,5513
5506,32703-1,"Kõnnu tee",,59.51680,25.68474,,,,5506
5507,32704-1,"Kõnnu tee",,59.51684,25.68518,,,,5507
5397,30004-1,"Loksa tee",,59.46320,25.63841,,,,5397
5510,32706-1,"Luha",,59.53140,25.71640,,,,5510
5511,32705-1,"Luha",,59.53133,25.71576,,,,5511
5399,30008-1,"Ulliallika",,59.48761,25.64969,,,,5399
5400,30007-1,"Ulliallika",,59.48753,25.64915,,,,5400
5516,34501-1,"Vanaveski",,59.56068,25.72437,,,,5516
5517,34502-1,"Vanaveski",,59.56097,25.72465,,,,5517
5522,32804-1,"Hara",,59.56377,25.63894,,,,5522
5523,32803-1,"Hara",,59.56366,25.63931,,,,5523
5526,32806-1,"Hara side",,59.57716,25.61063,,,,5526
5527,32805-1,"Hara side",,59.57731,25.61074,,,,5527
5524,32802-1,"Heindri",,59.56874,25.62467,,,,5524
5525,32801-1,"Heindri",,59.56863,25.62459,,,,5525
5518,32808-1,"Külaotsa",,59.56320,25.68782,,,,5518
5519,32807-1,"Külaotsa",,59.56331,25.68848,,,,5519
5520,32810-1,"Lohja",,59.56171,25.67090,,,,5520
5521,32809-1,"Lohja",,59.56170,25.67044,,,,5521
7530,34201-1,"Kõrve",,59.63623,25.68705,,,,7530
7531,34202-1,"Kõrve",,59.63596,25.68675,,,,7531
5552,34101-1,"Mäe",,59.61095,25.70043,,,,5552
5553,34102-1,"Mäe",,59.61116,25.70017,,,,5553
7535,34204-1,"Pärispea",,59.65391,25.69386,,,,7535
5554,34103-1,"Suurpea",,59.62554,25.68575,,,,5554
5555,34104-1,"Suurpea",,59.62559,25.68592,,,,5555
5550,34105-1,"Toomarahva",,59.60726,25.70749,,,,5550
5551,34106-1,"Toomarahva",,59.60696,25.70765,,,,5551
9740,34207-1,"Viinistu tee",,59.64536,25.69986,,,,9740
5546,34401-1,"Ahju",,59.61362,25.77474,,,,5546
5547,34402-1,"Ahju",,59.61337,25.77481,,,,5547
5544,34001-1,"Kasispea",,59.59953,25.76105,,,,5544
5545,34002-1,"Kasispea",,59.59914,25.75976,,,,5545
128829,34004-1,"Kasispea küla",,59.60318,25.76751,,,,139
128830,34003-1,"Kasispea küla",,59.60271,25.76662,,,,140
5548,34403-1,"Turbuneeme",,59.62055,25.77646,,,,5548
5549,34404-1,"Turbuneeme",,59.62098,25.77638,,,,5549
7536,34301-1,"Viinistu",,59.64547,25.75217,,,,7536
7537,34302-1,"Viinistu",,59.64570,25.75222,,,,7537
5393,29302-1,"Kahala",,59.45810,25.55319,,,,5393
5394,29301-1,"Kahala",,59.45838,25.55218,,,,5394
5391,29306-1,"Kahala-Kursi",,59.45550,25.51893,,,,5391
5392,29305-1,"Kahala-Kursi",,59.45678,25.51722,,,,5392
5383,28202-1,"Kivisilla",,59.44137,25.30997,,,,5383
5384,28201-1,"Kivisilla",,59.44165,25.30913,,,,5384
5381,28102-1,"Kodasoo",,59.43934,25.27354,,,,5381
5382,28101-1,"Kodasoo",,59.43965,25.27308,,,,5382
5395,30202-1,"Kolga tee",,59.46035,25.59174,,,,5395
5396,29311-1,"Kolga tee",,59.46113,25.58974,,,,5396
5389,30702-1,"Kupu",,59.45225,25.47738,,,,5389
5390,30701-1,"Kupu",,59.45250,25.47649,,,,5390
9563,31401-1,"Loksa tee",,59.46250,25.63558,,,,9563
5385,28456-1,"Valkla tee",,59.44402,25.35733,,,,5385
5386,28455-1,"Valkla tee",,59.44405,25.35206,,,,5386
5447,28414-1,"Valkla mõis",,59.47902,25.33328,,,,5447
7495,29002-1,"Kapa",,59.45363,25.43411,,,,7495
139262,29006-1,"Kapa",,59.45345,25.43204,,,,5760
139263,29107-1,"Käli",,59.45629,25.44626,,,,5761
139264,29108-1,"Käli",,59.45716,25.44832,,,,5762
7533,34205-1,"Viinistu tee",,59.64549,25.70003,,,,7533
9566,33704-1,"Kotka",,59.54101,25.73677,,,,9566
145006,33705-1,"Kotka",,59.54085,25.73731,,,,6008
5514,33802-1,"Vihasoo",,59.55197,25.78887,,,,5514
5515,33801-1,"Vihasoo",,59.55205,25.78858,,,,5515
152371,35001-2,"Loksa",,59.57981,25.72477,,,,6367
5541,35001-1,"Loksa",,59.57989,25.72471,,,,5541
5540,35007-1,"Lõuna",,59.57219,25.72468,,,,5540
9571,35008-1,"Lõuna",,59.57303,25.72492,,,,9571
5538,35006-1,"Loksa-Nõmme",,59.57343,25.71429,,,,5538
5539,35005-1,"Loksa-Nõmme",,59.57350,25.71477,,,,5539
5542,35101-1,"Laevaremonditehas",,59.58725,25.70717,,,,5542
9567,35102-1,"Laevaremonditehas",,59.58746,25.70729,,,,9567
9569,35003-1,"Ravikeskus",,59.58715,25.73355,,,,9569
9570,35004-1,"Ravikeskus",,59.58650,25.73371,,,,9570
11100,19524-1,"Haigla",,59.47657,25.01754,,,,11100
2876,20101-1,"Kabelikivi",,59.48069,24.94412,,,,2876
14750,19609-1,"Kombinaadi",,59.45687,24.99336,,,,14750
14751,19610-1,"Kombinaadi",,59.45700,24.99239,,,,14751
130000,19611-1,"Kroodi",,59.45555,25.00385,,,,204
130001,19612-1,"Kroodi",,59.45564,25.00357,,,,205
14746,19603-1,"Maardu järv",,59.45084,24.98701,,,,14746
14747,19604-1,"Maardu järv",,59.44975,24.98328,,,,14747
14754,47027-1,"Maardu mõisa tee",,59.45219,25.01103,,,,14754
5586,19701-1,"Muuga sadam",,59.48326,24.96845,,,,5586
14752,19605-1,"Üleoru",,59.45635,24.98981,,,,14752
129352,19606-1,"Üleoru",,59.45694,24.98749,,,,178
146738,19908-1,"Altmetsa",,59.46521,24.96480,,,,6144
129998,19601-1,"Fosforiidi",,59.45630,24.99675,,,,202
129999,19602-1,"Fosforiidi",,59.45636,24.99694,,,,203
2877,20102-1,"Kardheina tee",,59.48142,24.93275,,,,2877
10524,20105-1,"Kardheina tee",,59.48134,24.93231,,,,10524
5570,19519-1,"Kütte",,59.48153,25.02707,,,,5570
5571,19520-1,"Kütte",,59.48148,25.02746,,,,5571
5566,19522-1,"Haigla",,59.47632,25.01796,,,,5566
5567,19521-1,"Haigla",,59.47665,25.01792,,,,5567
5577,19501-1,"Kallavere",,59.48723,25.02707,,,,5577
5572,19503-1,"Kallavere kauplus",,59.48268,25.01762,,,,5572
5573,19504-1,"Kallavere kauplus",,59.48399,25.01867,,,,5573
5560,19608-1,"Kööba",,59.46337,25.00415,,,,5560
5561,19607-1,"Kööba",,59.46326,25.00434,,,,5561
5562,19517-1,"Maardu kalmistu",,59.46781,25.01317,,,,5562
5563,19518-1,"Maardu kalmistu",,59.46699,25.01184,,,,5563
5568,19510-1,"Mäeotsa",,59.47990,25.01611,,,,5568
5575,19507-1,"Nurga",,59.48657,25.02169,,,,5575
5569,19509-1,"Orumetsa",,59.47864,25.01640,,,,5569
5564,19513-1,"Ringi",,59.47226,25.01787,,,,5564
5565,19514-1,"Ringi",,59.47276,25.01836,,,,5565
10529,19502-1,"Kallavere",,59.48790,25.02275,,,,10529
10525,20103-1,"Kabelikivi",,59.48138,24.94401,,,,10525
10526,20104-1,"Kabelikivi",,59.48173,24.94529,,,,10526
11113,19706-1,"Maardu veehoidla",,59.47988,24.96333,,,,11113
11114,19705-1,"Maardu veehoidla",,59.48007,24.96236,,,,11114
5587,20004-1,"Uus-Muuga",,59.48101,24.95420,,,,5587
5588,20003-1,"Uus-Muuga",,59.48077,24.95587,,,,5588
2872,19901-1,"Muuga aedlinn",,59.47678,24.91898,,,,2872
10522,19905-1,"Muuga aedlinn",,59.47753,24.92075,,,,10522
2878,19904-1,"Pirnipuu puiestee",,59.47919,24.92417,,,,2878
10523,19906-1,"Pirnipuu puiestee",,59.47935,24.92489,,,,10523
129116,19527-1,"Noorte",,59.47837,25.01944,,,,167
5583,19703-1,"Kroodi oja",,59.48039,24.98270,,,,5583
5584,19704-1,"Kroodi oja",,59.48027,24.98269,,,,5584
11101,19511-1,"Orumetsa",,59.47937,25.01378,,,,11101
1590,19105-1,"Iru elektrijaam",,59.45101,24.92231,,,,1590
11110,19107-1,"Iru küla",,59.45527,24.91959,,,,11110
11111,19108-1,"Iru küla",,59.45521,24.91943,,,,11111
2945,19403-1,"Koplimäe",,59.45438,24.95753,,,,2945
2946,19402-1,"Koplimäe",,59.45450,24.95757,,,,2946
2947,19401-1,"Kärmu",,59.45311,24.96639,,,,2947
11109,19404-1,"Kärmu",,59.45292,24.96667,,,,11109
2941,19104-1,"Madikse",,59.45770,24.93757,,,,2941
2942,19103-1,"Madikse",,59.45758,24.93861,,,,2942
2943,19302-1,"Pähklamäe",,59.45620,24.94652,,,,2943
2944,19301-1,"Pähklamäe",,59.45651,24.94503,,,,2944
2939,19101-1,"Vasar",,59.45984,24.92823,,,,2939
2940,19102-1,"Vasar",,59.46045,24.92608,,,,2940
2874,20001-1,"Hiireherne tee",,59.47304,24.94072,,,,2874
2873,19903-1,"Kirsipuu puiestee",,59.47400,24.93115,,,,2873
2871,19902-1,"Muuga aedlinn",,59.47699,24.92068,,,,2871
2875,20002-1,"Õunapuu puiestee",,59.47495,24.95111,,,,2875
146131,20006-1,"Hiireherne tee",,59.47310,24.94054,,,,6110
146130,19907-1,"Kirsipuu puiestee",,59.47410,24.93111,,,,6109
146129,20005-1,"Õunapuu puiestee",,59.47500,24.95092,,,,6108
13855,22852-1,"Jõesuu",,59.30361,24.12621,,,,13855
13193,22849-1,"Risti kool",,59.22815,24.01302,,,,13193
150711,22876-1,"Vanatoa",,59.28918,24.14588,,,,6317
4829,22804-1,"Harju-Risti",,59.23016,23.99750,,,,4829
4830,22803-1,"Harju-Risti",,59.23010,23.99732,,,,4830
4825,22807-1,"Kõmmaste",,59.21814,24.04399,,,,4825
4826,22808-1,"Kõmmaste",,59.21797,24.04423,,,,4826
4839,22813-1,"Maissoo",,59.24935,23.77455,,,,4839
4840,22814-1,"Maissoo",,59.24905,23.77404,,,,4840
4835,22837-1,"Metskonna",,59.24796,23.92014,,,,4835
4836,22838-1,"Metskonna",,59.24770,23.92023,,,,4836
4827,22821-1,"Risti kool",,59.22478,24.02196,,,,4827
4828,22822-1,"Risti kool",,59.22458,24.02238,,,,4828
4841,22823-1,"Suurekivi",,59.21699,23.74844,,,,4841
4842,22824-1,"Suurekivi",,59.21652,23.74774,,,,4842
4837,22831-1,"Vihterpalu",,59.24897,23.86027,,,,4837
4838,22832-1,"Vihterpalu",,59.24866,23.86088,,,,4838
4833,22833-1,"Vilivalla",,59.23566,23.94956,,,,4833
4834,22834-1,"Vilivalla",,59.23540,23.95018,,,,4834
4831,22835-1,"Ülamäe",,59.23278,23.96742,,,,4831
4832,22836-1,"Ülamäe",,59.23265,23.96791,,,,4832
142869,22858-1,"Tamse",,59.24950,23.87911,,,,3418
142870,22859-1,"Tamse",,59.24956,23.88061,,,,5941
142871,22860-1,"Vanika",,59.24110,23.93553,,,,5942
142872,22861-1,"Vanika",,59.24075,23.93594,,,,5943
142867,22856-1,"Sõela",,59.20028,24.09689,,,,3077
142868,22857-1,"Sõela",,59.20121,24.09684,,,,3408
4848,22802-1,"Audevälja",,59.18323,24.08625,,,,4848
4812,22819-1,"Kasepere",,59.22693,24.16155,,,,4812
4823,22815-1,"Määra",,59.21911,24.10146,,,,4823
4824,22816-1,"Määra",,59.21967,24.10295,,,,4824
4843,22818-1,"Määramäe",,59.20940,24.09483,,,,4843
4844,22817-1,"Määramäe",,59.21042,24.09464,,,,4844
12460,22847-1,"Oti",,59.22446,24.11678,,,,12460
12461,22848-1,"Oti",,59.22503,24.11944,,,,12461
4821,22805-1,"Padise",,59.22740,24.14629,,,,4821
4822,22806-1,"Padise",,59.22733,24.14611,,,,4822
4845,22829-1,"Türismaa",,59.19143,24.09190,,,,4845
4846,22830-1,"Türismaa",,59.19242,24.09267,,,,4846
13852,22850-1,"Jahukundru",,59.27172,24.13763,,,,13852
13853,22851-1,"Jahukundru",,59.27068,24.13937,,,,13853
13436,22853-1,"Jõesuu",,59.30291,24.12524,,,,13436
4817,22828-1,"Karilepa",,59.25861,24.15097,,,,4817
4818,22827-1,"Karilepa",,59.25766,24.15158,,,,4818
9459,22839-1,"Kasepere",,59.22821,24.16436,,,,9459
4815,22809-1,"Liisküla",,59.24503,24.16949,,,,4815
4816,22810-1,"Liisküla",,59.24643,24.16841,,,,4816
4819,22811-1,"Madise",,59.28744,24.12341,,,,4819
4820,22812-1,"Madise",,59.28706,24.12462,,,,4820
11552,22846-1,"Vihterpalu mõis",,59.25899,23.87669,,,,11552
146093,22918-1,"Peetri kindlus",,59.35665,24.05281,,,,6083
10789,22909-1,"Paldiski",,59.34412,24.06092,,,,10789
10790,22910-1,"Paldiski",,59.34393,24.06114,,,,10790
152087,22921-1,"Mereääre",,59.32995,24.10645,,,,6358
12464,22911-1,"Leetse",,59.34046,24.10232,,,,12464
12465,22912-1,"Leetse",,59.34001,24.10590,,,,12465
127464,22913-1,"Rae põik",,59.34184,24.07929,,,,90
4766,21716-1,"Vanaranna tee",,59.34503,24.18287,,,,4766
10349,22904-1,"Kivi tänav",,59.34740,24.05783,,,,10349
10350,22905-1,"Raudteejaam",,59.34441,24.06177,,,,10350
138810,22916-1,"Pentagoni",,59.34311,24.07169,,,,5714
138811,22917-1,"Pentagoni",,59.34275,24.07265,,,,5715
10348,22903-1,"Rae tänav",,59.34995,24.05883,,,,10348
138809,22915-1,"Tööstuse tänav",,59.34747,24.06200,,,,5713
4768,22901-1,"Sadama tänav",,59.35244,24.05333,,,,4768
14721,23055-1,"Hellema",,59.35567,25.07606,,,,14721
14722,23056-1,"Hellema",,59.35608,25.07625,,,,14722
127656,41117-1,"Kurgla",,59.40636,25.07815,,,,96
10857,41105-1,"Aruküla",,59.37203,25.07949,,,,10857
10858,41104-1,"Aruküla",,59.37208,25.07739,,,,10858
10861,41314-1,"Kulli",,59.38355,25.00309,,,,10861
10862,41313-1,"Kulli",,59.38349,25.00294,,,,10862
10853,41004-1,"Raasiku",,59.36575,25.17377,,,,10853
10854,41003-1,"Raasiku",,59.36557,25.17487,,,,10854
5198,41103-1,"Aruküla",,59.36906,25.07980,,,,5198
5199,41107-1,"Aruküla kool",,59.36254,25.08243,,,,5199
5200,41108-1,"Aruküla kool",,59.36290,25.08270,,,,5200
5209,23025-1,"Peningi",,59.33898,25.15107,,,,5209
5210,23026-1,"Peningi",,59.33918,25.15135,,,,5210
5217,23027-1,"Perila",,59.28314,25.15951,,,,5217
5218,23028-1,"Perila",,59.28326,25.15947,,,,5218
5219,23030-1,"Pikavere",,59.27655,25.13351,,,,5219
5220,23029-1,"Pikavere",,59.27655,25.13476,,,,5220
5211,23040-1,"Retimäe",,59.31784,25.15883,,,,5211
5212,23039-1,"Retimäe",,59.31837,25.15885,,,,5212
5213,23042-1,"Rätla",,59.30797,25.16693,,,,5213
5214,23041-1,"Rätla",,59.30992,25.16517,,,,5214
5320,41009-1,"Sambu",,59.38256,25.19587,,,,5320
5321,41010-1,"Sambu",,59.38287,25.19605,,,,5321
5215,23048-1,"Tasuja",,59.29778,25.17276,,,,5215
5216,23047-1,"Tasuja",,59.29798,25.17307,,,,5216
14842,23057-1,"Veskimäe",,59.27530,25.11586,,,,14842
14843,23058-1,"Veskimäe",,59.27526,25.11461,,,,14843
5318,41013-1,"Vildivabrik",,59.37907,25.19459,,,,5318
5319,41014-1,"Vildivabrik",,59.37883,25.19469,,,,5319
5189,41112-1,"Harju",,59.35921,25.05807,,,,5189
5190,41111-1,"Harju",,59.35961,25.05711,,,,5190
5201,23014-1,"Igavere",,59.35098,25.08540,,,,5201
5202,23013-1,"Igavere",,59.35127,25.08512,,,,5202
5203,23010-1,"Ata",,59.34710,25.09925,,,,5203
5204,23009-1,"Ata",,59.34731,25.09883,,,,5204
5185,41311-1,"Jüri tee",,59.36808,25.02737,,,,5185
5186,41312-1,"Jüri tee",,59.36843,25.02734,,,,5186
5205,23018-1,"Kalesi",,59.34395,25.11164,,,,5205
5206,23017-1,"Kalesi",,59.34412,25.11111,,,,5206
5187,41402-1,"Kangla",,59.36207,25.04913,,,,5187
5188,41401-1,"Kangla",,59.36265,25.04752,,,,5188
5207,23051-1,"Tõhelgi tee",,59.34442,25.12147,,,,5207
5208,23052-1,"Tõhelgi tee",,59.34435,25.12245,,,,5208
5193,41102-1,"Aedlinn",,59.36640,25.07315,,,,5193
5194,41101-1,"Aedlinn",,59.36644,25.07326,,,,5194
5195,41114-1,"Spordiväljak",,59.36427,25.06617,,,,5195
5196,41113-1,"Spordiväljak",,59.36387,25.06531,,,,5196
5226,21458-1,"Laasi tee",,59.28241,25.25431,,,,5226
5227,21459-1,"Laasi tee",,59.28244,25.25574,,,,5227
5221,23024-1,"Liivaaugu",,59.28294,25.20374,,,,5221
5222,23023-1,"Liivaaugu",,59.28278,25.20437,,,,5222
5223,23032-1,"Puidutööstuse",,59.28317,25.23673,,,,5223
5314,41007-1,"Raasiku rahvamaja",,59.37019,25.18474,,,,5314
5315,41008-1,"Raasiku rahvamaja",,59.37061,25.18521,,,,5315
5312,41006-1,"Raasiku side",,59.36759,25.17631,,,,5312
5313,41005-1,"Raasiku side",,59.36741,25.17583,,,,5313
130560,43178-1,"Aaviku",,59.34261,24.91021,,,,220
130561,43179-1,"Aaviku",,59.34234,24.91034,,,,221
137057,23930-1,"Arestimaja",,59.42164,24.89959,,,,4956
137058,23931-1,"Arestimaja",,59.42166,24.90060,,,,4958
14045,23915-1,"Ellaku",,59.26653,25.02008,,,,14045
14836,43162-1,"Jaani",,59.38466,24.86199,,,,14836
135902,43188-1,"Jaani",,59.38448,24.86217,,,,4566
135908,43194-1,"Järveküla kool",,59.38306,24.82103,,,,4572
135909,43195-1,"Järveküla kool",,59.38309,24.82151,,,,4573
4448,23161-1,"Jüri",,59.35791,24.89000,,,,4448
13140,23911-1,"Jüri Gümnaasium",,59.35612,24.90841,,,,13140
135906,43193-1,"Jüri kirik",,59.36241,24.92404,,,,4570
135907,43192-1,"Jüri kirik",,59.36213,24.92380,,,,4571
138081,23932-1,"Kesa tee",,59.34660,24.96214,,,,5636
149407,23953-1,"Kindluse",,59.38142,24.82172,,,,6229
149408,23954-1,"Kindluse",,59.38142,24.82204,,,,6230
149409,23955-1,"Koolipõllu",,59.37876,24.82946,,,,6231
149953,23960-1,"Koolipõllu",,59.37867,24.82944,,,,6261
130562,43180-1,"Korba",,59.32400,24.92471,,,,222
130563,43181-1,"Korba",,59.32519,24.92409,,,,223
135911,43197-1,"Krati",,59.38793,24.82404,,,,4575
134113,43182-1,"Kurna tee",,59.33255,24.82425,,,,4254
126779,23919-1,"Lehmja kool",,59.37524,24.85635,,,,65
128606,47041-1,"Lehmja kool",,59.37521,24.85586,,,,132
130654,43171-1,"Leivajõe aiandusühistu",,59.38713,24.94158,,,,234
138950,23935-1,"Liiva tee",,59.37251,24.81052,,,,5728
138951,23936-1,"Liiva tee",,59.37270,24.81035,,,,5729
14840,43118-1,"Linnu tee",,59.40431,24.94381,,,,14840
14841,43119-1,"Linnu tee",,59.40448,24.94376,,,,14841
14835,43163-1,"Loopera",,59.38730,24.85131,,,,14835
135901,43187-1,"Loopera",,59.38721,24.85085,,,,4565
130655,43173-1,"Lootsi aiandusühistu",,59.37682,24.94973,,,,235
138952,23933-1,"Lõo tee",,59.37609,24.81245,,,,5730
138953,23934-1,"Lõo tee",,59.37627,24.81335,,,,5731
4481,23127-1,"Mõisaküla tee",,59.33823,24.84039,,,,4481
149403,23945-1,"Nurme",,59.38900,24.83009,,,,6225
135913,23136-1,"Orava",,59.36490,24.81593,,,,4577
135914,23135-1,"Orava",,59.36521,24.81597,,,,4578
13667,43159-1,"Peetri kool",,59.39626,24.80829,,,,13667
128790,43164-1,"Peetri kool",,59.39754,24.80797,,,,136
129157,43169-1,"Puraviku",,59.29951,24.91590,,,,173
14839,23916-1,"Põrguvälja",,59.35978,24.88545,,,,14839
14851,23917-1,"Põrguvälja",,59.35928,24.88678,,,,14851
149400,23944-1,"Pöörasoo",,59.29421,25.08940,,,,6222
130522,43177-1,"Raadiojaama tee",,59.40642,24.93294,,,,216
130523,43176-1,"Raadiojaama tee",,59.40678,24.93298,,,,217
149398,23942-1,"Raadivõhma",,59.30436,25.08127,,,,6220
13439,43160-1,"Rae mõis",,59.37951,24.88680,,,,13439
135903,43189-1,"Rae mõis",,59.37947,24.88699,,,,4567
13445,23133-1,"Rae-Seli",,59.34754,25.00293,,,,13445
13446,23134-1,"Rae-Seli",,59.34762,25.00301,,,,13446
149406,23952-1,"Reti tee",,59.38333,24.82292,,,,6228
149412,23947-1,"Rõõla tee",,59.37696,24.85768,,,,6234
13220,23913-1,"Sinikivi",,59.36546,24.87255,,,,13220
13221,23914-1,"Sinikivi",,59.36676,24.87101,,,,13221
130649,43174-1,"Suursoo",,59.30196,25.05357,,,,230
149395,23940-1,"Suursoo",,59.30171,25.05265,,,,6216
149401,23949-1,"Suursoo küla",,59.29153,25.06597,,,,6223
149402,23950-1,"Suursoo küla",,59.29149,25.06606,,,,6224
135899,43185-1,"Talipihlaka",,59.38567,24.84019,,,,4356
135900,43186-1,"Talipihlaka",,59.38629,24.84438,,,,4517
129262,43166-1,"Turuveski",,59.37202,24.83425,,,,175
129263,43167-1,"Turuveski",,59.37179,24.83443,,,,176
13678,43161-1,"Uuesalu",,59.36092,24.81198,,,,13678
11530,23148-1,"Uusmaa",,59.39417,24.80593,,,,11530
128791,43165-1,"Uusmaa",,59.39425,24.80584,,,,137
130653,43170-1,"Vaadi",,59.37413,24.94377,,,,233
13209,23910-1,"Vaida",,59.28539,24.97627,,,,13209
132743,43408-1,"Vaida Põhikool",,59.28200,24.97922,,,,3309
130652,43172-1,"Vana-Üüdiku",,59.32532,24.99795,,,,232
136021,43410-1,"Vangla",,59.42192,24.90456,,,,4581
144955,43411-1,"Vangla",,59.42187,24.90532,,,,4804
126521,43406-1,"Veeaugu",,59.24437,25.00996,,,,41
126522,43405-1,"Veeaugu",,59.24506,25.00993,,,,42
131476,23185-1,"Veetorni",,59.35512,24.89481,,,,3969
130650,43175-1,"Veskitaguse",,59.31873,24.95441,,,,231
135904,43190-1,"Viadukti",,59.37432,24.90395,,,,4568
135905,43191-1,"Viadukti",,59.37388,24.90440,,,,4569
135910,43196-1,"Vägeva",,59.39154,24.81271,,,,4574
4482,23128-1,"Väljamäe tee",,59.33380,24.83262,,,,4482
10865,43157-1,"Lagedi",,59.39975,24.93170,,,,10865
10866,43158-1,"Lagedi",,59.39931,24.93230,,,,10866
4475,23160-1,"Lilleoru",,59.26185,25.04465,,,,4475
4476,23159-1,"Lilleoru",,59.26163,25.04328,,,,4476
4477,23169-1,"Salu küla",,59.26936,25.07922,,,,4477
4478,23170-1,"Salu küla",,59.26914,25.07892,,,,4478
4479,23177-1,"Urvaste",,59.27385,25.09618,,,,4479
4480,23178-1,"Urvaste",,59.27372,25.09674,,,,4480
10494,23193-1,"Assaku",,59.37993,24.83719,,,,10494
10495,23194-1,"Assaku",,59.38026,24.83651,,,,10495
10497,23196-1,"Assaku",,59.37934,24.84342,,,,10497
4436,23111-1,"Hundisepa",,59.38212,24.83007,,,,4436
4437,23112-1,"Hundisepa",,59.38207,24.82922,,,,4437
4434,23113-1,"Järveküla",,59.38606,24.81573,,,,4434
4435,23114-1,"Järveküla",,59.38574,24.81608,,,,4435
4483,23115-1,"Järvesuu",,59.40402,24.79213,,,,4483
4484,23116-1,"Järvesuu",,59.40490,24.79330,,,,4484
4428,23117-1,"Järveveere",,59.39950,24.79129,,,,4428
4429,23118-1,"Järveveere",,59.40039,24.79054,,,,4429
4432,23188-1,"Veski",,59.38981,24.80394,,,,4432
4433,23187-1,"Veski",,59.39020,24.80330,,,,4433
4489,23120-1,"Ehituse",,59.35930,24.91784,,,,4489
4490,23119-1,"Ehituse",,59.35912,24.91665,,,,4490
4491,23121-1,"Karba",,59.36013,24.92934,,,,4491
4492,23122-1,"Karba",,59.36045,24.93146,,,,4492
4499,23145-1,"Leivajõe",,59.36034,24.99545,,,,4499
4500,23146-1,"Leivajõe",,59.36042,24.99682,,,,4500
4497,23153-1,"Pajupea",,59.36116,24.96443,,,,4497
4498,23154-1,"Pajupea",,59.36106,24.96457,,,,4498
4493,23167-1,"Rae",,59.36170,24.93702,,,,4493
4494,23168-1,"Rae",,59.36168,24.93739,,,,4494
4487,23175-1,"Tuule",,59.35810,24.90750,,,,4487
4488,23176-1,"Tuule",,59.35825,24.90861,,,,4488
4495,23183-1,"Vaskjala",,59.36126,24.95021,,,,4495
4496,23184-1,"Vaskjala",,59.36142,24.94928,,,,4496
4486,23186-1,"Veetorni",,59.35477,24.89424,,,,4486
10340,23901-1,"Patika",,59.31504,24.93662,,,,10340
5063,22010-1,"Kurna tee",,59.33285,24.82376,,,,5063
11096,43004-1,"Keskküla",,59.39939,24.95718,,,,11096
11097,43003-1,"Keskküla",,59.39912,24.95742,,,,11097
4529,43111-1,"Lagedi",,59.40384,24.93875,,,,4529
4531,43112-1,"Lagedi",,59.40353,24.93913,,,,4531
4534,43113-1,"Lagedi kool",,59.40212,24.94349,,,,4534
4535,43114-1,"Lagedi kool",,59.40173,24.94500,,,,4535
10595,43005-1,"Tuulevälja",,59.39514,24.96562,,,,10595
4536,43301-1,"Ülejõe",,59.41291,24.92107,,,,4536
4537,43302-1,"Ülejõe",,59.41273,24.92147,,,,4537
4505,43155-1,"Külma",,59.38561,24.93383,,,,4505
4506,43156-1,"Külma",,59.38436,24.93280,,,,4506
4507,43151-1,"Lagedi haigla",,59.39391,24.93450,,,,4507
4508,43152-1,"Lagedi haigla",,59.39317,24.93413,,,,4508
4509,43153-1,"Lagedi kauplus",,59.39770,24.93330,,,,4509
4510,43154-1,"Lagedi kauplus",,59.39764,24.93315,,,,4510
4503,23142-1,"Laiakivi",,59.38201,24.92819,,,,4503
4504,23141-1,"Laiakivi",,59.38242,24.92862,,,,4504
4501,23165-1,"Pruuli tee",,59.37228,24.92409,,,,4501
4502,23166-1,"Pruuli tee",,59.37257,24.92454,,,,4502
4532,43115-1,"Lohu",,59.40751,24.94583,,,,4532
4533,43116-1,"Lohu",,59.40697,24.94562,,,,4533
145872,23937-1,"Lennuradari",,59.41287,24.90457,,,,6054
145873,23938-1,"Lennuradari",,59.41395,24.90229,,,,6055
4440,23101-1,"Allika",,59.38381,24.83680,,,,4440
4438,23103-1,"Annuse",,59.38974,24.82902,,,,4438
4439,23104-1,"Annuse",,59.38946,24.82878,,,,4439
4443,23108-1,"Assaku",,59.38325,24.83642,,,,4443
4452,23123-1,"Kautjala",,59.32444,24.92158,,,,4452
4453,23124-1,"Kautjala",,59.32406,24.92139,,,,4453
4446,23126-1,"Kungla",,59.36718,24.86124,,,,4446
4447,23125-1,"Kungla",,59.36572,24.86293,,,,4447
4444,23143-1,"Lehmja",,59.37643,24.84957,,,,4444
4445,23144-1,"Lehmja",,59.37513,24.84839,,,,4445
4455,23156-1,"Patika",,59.31244,24.93409,,,,4455
4425,23157-1,"Peetri",,59.39752,24.81947,,,,4425
4426,23158-1,"Peetri",,59.39728,24.81914,,,,4426
4449,23162-1,"Pildiküla",,59.35665,24.87685,,,,4449
4456,23171-1,"Sillaotsa",,59.29900,24.95258,,,,4456
4457,23172-1,"Sillaotsa",,59.29834,24.95208,,,,4457
4450,23181-1,"Vana-Aaviku",,59.34071,24.90196,,,,4450
4451,23182-1,"Vana-Aaviku",,59.34051,24.90175,,,,4451
10267,23908-1,"Vaida",,59.28636,24.97525,,,,10267
11119,43403-1,"Aruvalla",,59.25410,25.01721,,,,11119
11120,43404-1,"Aruvalla",,59.25503,25.01720,,,,11120
4466,23109-1,"Ellaku",,59.26696,25.01780,,,,4466
4467,23110-1,"Ellaku",,59.26557,25.01925,,,,4467
4468,23905-1,"Kasemetsa",,59.26053,25.02017,,,,4468
4469,23906-1,"Kasemetsa",,59.25970,25.01897,,,,4469
4470,23173-1,"Tuhala tee",,59.23642,25.02141,,,,4470
4471,23174-1,"Tuhala tee",,59.23723,25.01862,,,,4471
4464,23189-1,"Vaidasoo",,59.27460,25.00671,,,,4464
4465,23190-1,"Vaidasoo",,59.27374,25.00792,,,,4465
149405,23951-1,"Ööbiku",,59.37395,24.84322,,,,6227
147796,23848-1,"Kiisa jaam",,59.23826,24.68607,,,,5773
134176,23814-1,"Saku Gümnaasium",,59.30281,24.67250,,,,4272
9956,23271-1,"Saku Raudteejaam",,59.30114,24.67606,,,,9956
141396,23845-1,"Nurmiko",,59.31219,24.62789,,,,5872
141397,23846-1,"Nurmiko",,59.31212,24.62841,,,,5873
4983,23206-1,"Jõenurme",,59.32783,24.62044,,,,4983
4984,23205-1,"Jõenurme",,59.32734,24.62082,,,,4984
4987,23208-1,"Jälgimäe",,59.31403,24.60997,,,,4987
4988,23207-1,"Jälgimäe",,59.31456,24.61118,,,,4988
146565,23847-1,"Laagri",,59.34459,24.62240,,,,6138
4985,23249-1,"Topi",,59.32049,24.61889,,,,4985
4986,23250-1,"Topi",,59.32135,24.61996,,,,4986
134291,23822-1,"Murumäe",,59.30941,24.62648,,,,4299
138704,23839-1,"Karjavärava",,59.31864,24.63109,,,,5706
138705,23840-1,"Karjavärava",,59.31848,24.63100,,,,5707
5001,23260-1,"Leesi",,59.25573,24.68697,,,,5001
5002,23261-1,"Leesi",,59.25655,24.68691,,,,5002
5003,23247-1,"Nirgioru",,59.27010,24.67838,,,,5003
5004,23248-1,"Nirgioru",,59.26922,24.67876,,,,5004
137170,23824-1,"Revali",,59.24255,24.66526,,,,2475
132820,23239-1,"Kurtna tiigi",,59.22847,24.71370,,,,4086
132821,23240-1,"Kurtna tiigi",,59.22837,24.71340,,,,4087
9968,23272-1,"Kiisa kauplus",,59.23453,24.69046,,,,9968
133687,23807-1,"Kiisa kauplus",,59.23442,24.69053,,,,4222
13363,23294-1,"Kiisa keskus",,59.23556,24.68402,,,,13363
13364,23295-1,"Kiisa keskus",,59.23552,24.68451,,,,13364
4991,23220-1,"Kurtna",,59.22998,24.71565,,,,4991
4992,23219-1,"Kurtna",,59.23026,24.71646,,,,4992
133688,23808-1,"Kurtna kool",,59.23133,24.71868,,,,4230
137172,23826-1,"Lillemäe",,59.24468,24.73283,,,,2593
137173,23827-1,"Lillemäe",,59.24461,24.73258,,,,2687
5031,23216-1,"Kirdalu",,59.24374,24.75048,,,,5031
5029,23262-1,"Männiku/Tagadi",,59.23318,24.76672,,,,5029
5030,23263-1,"Männiku/Tagadi",,59.23331,24.76634,,,,5030
134281,23815-1,"Tagadi tee",,59.23360,24.76481,,,,4289
138058,23837-1,"Kadakamarja",,59.31718,24.62105,,,,5634
138059,23838-1,"Kadakamarja",,59.31722,24.62176,,,,5635
13226,23296-1,"Männituka tee",,59.30910,24.64137,,,,13226
13227,23297-1,"Männituka tee",,59.30903,24.64192,,,,13227
134285,23298-1,"Nurme tee",,59.30087,24.66212,,,,4293
134286,23299-1,"Nurme tee",,59.30084,24.66152,,,,4294
134289,23820-1,"Nurmiko tee",,59.30890,24.63345,,,,4297
134290,23821-1,"Nurmiko tee",,59.30881,24.63351,,,,4298
134287,23818-1,"Paju tee",,59.30966,24.64628,,,,4295
134288,23819-1,"Paju tee",,59.30951,24.64652,,,,4296
4979,23317-1,"Peoleo",,59.33686,24.61010,,,,4979
130187,23397-1,"Urda",,59.34141,24.61678,,,,208
141394,23843-1,"Joametsa",,59.33330,24.61993,,,,5871
141398,23844-1,"Joametsa",,59.33359,24.61948,,,,5874
12709,23285-1,"Kurvi",,59.30253,24.63856,,,,12709
12710,23286-1,"Kurvi",,59.30218,24.64036,,,,12710
5025,23224-1,"Murimäe",,59.30754,24.63393,,,,5025
5026,23223-1,"Murumäe",,59.30830,24.63320,,,,5026
5023,23231-1,"Pähklimäe",,59.30033,24.64936,,,,5023
10723,23279-1,"Kajamaa",,59.27407,24.72016,,,,10723
10724,23280-1,"Kajamaa",,59.27395,24.72043,,,,10724
5005,23257-1,"Kasemetsa",,59.27530,24.67276,,,,5005
5006,23258-1,"Kasemetsa",,59.27500,24.67442,,,,5006
133681,23803-1,"Palktare",,59.27026,24.73093,,,,4187
133682,23804-1,"Palktare",,59.27030,24.72977,,,,4191
5007,23230-1,"Preeria",,59.28074,24.66492,,,,5007
5008,23229-1,"Preeria",,59.28130,24.66484,,,,5008
5024,23232-1,"Pähklimäe",,59.29967,24.65125,,,,5024
5009,23236-1,"Saku Kingu",,59.29455,24.65624,,,,5009
10455,23293-1,"Saku Kingu",,59.29519,24.65574,,,,10455
134282,23816-1,"Kurtna vana kool",,59.22990,24.73570,,,,4290
134283,23817-1,"Kurtna vana kool",,59.22994,24.73555,,,,4291
133879,23812-1,"Tagadi pood",,59.22788,24.75383,,,,4238
133880,23813-1,"Tagadi pood",,59.22788,24.75366,,,,4239
5033,23217-1,"Kiisa tee",,59.25028,24.74354,,,,5033
5034,23218-1,"Kiisa tee",,59.25059,24.74344,,,,5034
5037,23222-1,"Lokuti",,59.28110,24.74110,,,,5037
5038,23221-1,"Lokuti",,59.28167,24.74132,,,,5038
5041,23237-1,"Saku tee",,59.30685,24.74340,,,,5041
5042,23238-1,"Saku tee",,59.30802,24.74451,,,,5042
5050,22028-1,"Sausti",,59.31866,24.76106,,,,5050
5027,23244-1,"Tagadi",,59.21406,24.77688,,,,5027
5028,23243-1,"Tagadi",,59.21438,24.77698,,,,5028
12711,23287-1,"Traksi",,59.20048,24.78321,,,,12711
12712,23288-1,"Traksi",,59.20035,24.78364,,,,12712
5039,23254-1,"Vetka",,59.28872,24.73941,,,,5039
5040,23253-1,"Vetka",,59.29044,24.73879,,,,5040
5013,23210-1,"Karjääri",,59.32507,24.69071,,,,5013
5014,23209-1,"Karjääri",,59.32537,24.69105,,,,5014
5011,23226-1,"Männiku jaam",,59.33854,24.70045,,,,5011
5012,23225-1,"Männiku jaam",,59.33974,24.70158,,,,5012
5019,23234-1,"Saku keskuse",,59.30044,24.66199,,,,5019
5020,23233-1,"Saku keskuse",,59.30055,24.66130,,,,5020
5021,23202-1,"Salu",,59.30042,24.65252,,,,5021
5022,23201-1,"Salu",,59.30035,24.65245,,,,5022
5015,23246-1,"Tammemäe",,59.31131,24.68090,,,,5015
5016,23245-1,"Tammemäe",,59.31139,24.68144,,,,5016
5017,23256-1,"Õlletehase",,59.30225,24.66881,,,,5017
5018,23255-1,"Õlletehase",,59.30234,24.66868,,,,5018
9963,23275-1,"Teaduse",,59.29600,24.66034,,,,9963
9964,23276-1,"Teaduse",,59.29612,24.66038,,,,9964
9965,23277-1,"Saku Tehnika",,59.29698,24.66176,,,,9965
5010,23235-1,"Tiigi",,59.29401,24.65918,,,,5010
9960,23278-1,"Tiigi",,59.29362,24.65848,,,,9960
4997,23214-1,"Kiisa turg",,59.23597,24.68282,,,,4997
4998,23213-1,"Kiisa turg",,59.23659,24.68260,,,,4998
4999,23212-1,"Kiisapalu",,59.24348,24.68015,,,,4999
5000,23211-1,"Kiisapalu",,59.24401,24.68036,,,,5000
133685,23801-1,"Kõrnumäe",,59.25666,24.70381,,,,4196
133686,23802-1,"Kõrnumäe",,59.25658,24.70559,,,,4203
133683,23805-1,"Proosa",,59.26743,24.72962,,,,4192
133684,23806-1,"Proosa",,59.26733,24.73027,,,,4195
4993,23836-1,"Soonurme",,59.21907,24.66948,,,,4993
4994,23835-1,"Soonurme",,59.21940,24.67006,,,,4994
4995,23241-1,"Standard",,59.22661,24.67514,,,,4995
4996,23242-1,"Standard",,59.22717,24.67569,,,,4996
5035,23252-1,"Traani",,59.26674,24.74102,,,,5035
5036,23251-1,"Traani",,59.26712,24.74124,,,,5036
134294,23823-1,"Kodusalu tee",,59.33531,24.63394,,,,4300
133870,23811-1,"Lodjapuu tee",,59.33645,24.65036,,,,4237
133869,23810-1,"Kungla tee",,59.34182,24.64949,,,,4236
133868,23809-1,"Metsavaimu tee",,59.34523,24.64478,,,,4235
11434,22742-1,"Antsuküla",,59.05702,24.18026,,,,11434
136885,47337-1,"Karjavahe tee",,59.23940,24.51811,,,,4654
10505,21952-1,"Kernu koolimaja",,59.13467,24.49609,,,,10505
4901,21914-1,"Kernu mõis",,59.15433,24.50655,,,,4901
4902,21913-1,"Kernu mõis",,59.15373,24.50670,,,,4902
142302,21968-1,"Kivisilla",,59.18712,24.32348,,,,5901
142311,21969-1,"Kivisilla",,59.18713,24.32335,,,,5907
142291,21972-1,"Kullapa",,59.18010,24.33936,,,,5890
142313,21973-1,"Kullapa",,59.18008,24.33911,,,,5909
13181,47342-1,"Laagri alevik",,59.35149,24.61049,,,,13181
132909,47313-1,"Männi",,59.24351,24.64870,,,,4090
132910,47314-1,"Männi",,59.24346,24.64856,,,,4091
141221,22758-1,"Nissi koolimaja",,59.10852,24.31431,,,,5854
12557,22745-1,"Nurme",,59.07595,24.33620,,,,12557
12559,22746-1,"Nurme",,59.07580,24.33678,,,,12559
142297,21961-1,"Pihelga",,59.21056,24.36614,,,,5896
142308,21962-1,"Pihelga",,59.21047,24.36609,,,,5904
142303,21966-1,"Põlde",,59.18025,24.32540,,,,5902
142310,21967-1,"Põlde",,59.18022,24.32513,,,,5906
142298,21963-1,"Rabaäärse",,59.21089,24.35464,,,,5897
142309,21964-1,"Rabaäärse",,59.21095,24.35459,,,,5905
147387,47365-1,"Redise",,59.34773,24.61368,,,,6193
4883,22732-1,"Riisipere jaam",,59.11974,24.31132,,,,4883
4911,21942-1,"Ruila kool",,59.19251,24.43794,,,,4911
142299,21982-1,"Sarapiku",,59.21024,24.34347,,,,5898
142318,21983-1,"Sarapiku",,59.21030,24.34328,,,,5914
132907,47312-1,"Trelli tee",,59.24880,24.64699,,,,4089
147372,47359-1,"Turba",,59.07623,24.24071,,,,6189
147373,47360-1,"Turba",,59.07618,24.24035,,,,6190
147392,47368-1,"Turba jaam",,59.07614,24.24091,,,,6198
148322,47371-1,"Turba jaam",,59.07599,24.24110,,,,5798
14259,22752-1,"Turba kool",,59.08268,24.24214,,,,14259
149368,47372-1,"Turvaste",,59.08852,24.11741,,,,6136
134772,47335-1,"Urda jaam",,59.34414,24.61255,,,,3651
12560,22747-1,"Varese",,59.06651,24.31887,,,,12560
12561,22748-1,"Varese",,59.06616,24.31760,,,,12561
12303,21953-1,"Jaanika",,59.15793,24.31738,,,,12303
12304,21954-1,"Jaanika",,59.15798,24.31752,,,,12304
12297,21955-1,"Kibuna",,59.21439,24.29360,,,,12297
12299,21956-1,"Kibuna",,59.21467,24.29344,,,,12299
12301,21957-1,"Laitse",,59.19479,24.31515,,,,12301
12302,21958-1,"Laitse",,59.19516,24.31493,,,,12302
93453,23372-1,"Padula",,59.33750,24.59126,,,,14
93454,23373-1,"Padula",,59.33788,24.59284,,,,15
12305,22744-1,"Riisipere",,59.11946,24.31211,,,,12305
94017,22753-1,"Riisipere",,59.11964,24.31224,,,,18
10746,23424-1,"Saue",,59.32481,24.54746,,,,10746
10747,23425-1,"Saue",,59.32507,24.54882,,,,10747
34250,23375-1,"Urda",,59.34358,24.61258,,,,34250
93451,23374-1,"Urda",,59.34349,24.61206,,,,13
10750,23363-1,"Valingu",,59.31158,24.48537,,,,10750
10751,23364-1,"Valingu",,59.31140,24.48353,,,,10751
136886,47339-1,"Kiviveski tee",,59.23484,24.53576,,,,4656
132924,47316-1,"Orava",,59.23080,24.53725,,,,4106
132925,47320-1,"Orava",,59.23077,24.53752,,,,4107
132926,47321-1,"Taga-Orava",,59.22703,24.54048,,,,4108
132927,47309-1,"Taga-Orava",,59.22710,24.54070,,,,4109
128856,23394-1,"Tammi tee",,59.40733,24.54654,,,,144
4699,23367-1,"Laabi",,59.40285,24.54769,,,,4699
4700,23366-1,"Laabi",,59.40314,24.54781,,,,4700
12695,23361-1,"Vatsla tee",,59.39017,24.55681,,,,12695
12696,23362-1,"Vatsla tee",,59.39043,24.55692,,,,12696
14455,23377-1,"Haavasalu",,59.33149,24.54855,,,,14455
14456,23378-1,"Haavasalu",,59.33162,24.54886,,,,14456
134566,47332-1,"Seltsimaja",,59.34205,24.55603,,,,4409
134567,47333-1,"Seltsimaja",,59.34204,24.55590,,,,4410
134564,47330-1,"Suurevälja",,59.33370,24.55011,,,,4407
134565,47331-1,"Suurevälja",,59.33369,24.54996,,,,4408
126685,23388-1,"Uus-Klaokse",,59.35654,24.55624,,,,50
126686,23389-1,"Uus-Klaokse",,59.35668,24.55599,,,,51
138129,47343-1,"Forelli",,59.27486,24.52181,,,,5647
134556,47322-1,"Liidumäe",,59.29942,24.53522,,,,4399
134557,47323-1,"Liidumäe",,59.29942,24.53505,,,,4400
134558,47324-1,"Mullaste",,59.29337,24.52685,,,,4401
134559,47325-1,"Mullaste",,59.29336,24.52672,,,,4402
9344,23344-1,"Karjatse",,59.26189,24.45386,,,,9344
9345,23345-1,"Karjatse",,59.26228,24.45368,,,,9345
9342,23346-1,"Kooli tare",,59.25600,24.45515,,,,9342
9343,23347-1,"Kooli tare",,59.25569,24.45510,,,,9343
4941,23322-1,"Pällu",,59.24107,24.46571,,,,4941
4942,23321-1,"Pällu",,59.24150,24.46498,,,,4942
147393,47369-1,"Suurearu",,59.26850,24.45316,,,,6199
147394,47370-1,"Suurearu",,59.26778,24.45292,,,,6200
4951,23328-1,"Tuula",,59.27586,24.45193,,,,4951
4952,23327-1,"Tuula",,59.27623,24.45197,,,,4952
144712,21987-1,"Loigu",,59.12585,24.48650,,,,6000
144713,21986-1,"Loigu",,59.12581,24.48626,,,,6001
142300,21984-1,"Kibuna",,59.20343,24.26226,,,,5899
142319,21985-1,"Kibuna",,59.20342,24.26186,,,,5915
142301,21965-1,"Raudteejaama tee",,59.21386,24.28762,,,,5900
4712,23315-1,"Kindluse",,59.36191,24.48990,,,,4712
4713,23316-1,"Kindluse",,59.36188,24.49018,,,,4713
4710,23342-1,"Uuevälja",,59.36804,24.47994,,,,4710
4711,23343-1,"Uuevälja",,59.36824,24.47979,,,,4711
9339,23349-1,"Kullaliiva",,59.22630,24.59640,,,,9339
132915,23338-1,"Kullaliiva",,59.22630,24.59611,,,,4096
9337,23350-1,"Maidla külakeskus",,59.22348,24.59194,,,,9337
9338,23351-1,"Maidla külakeskus",,59.22341,24.59190,,,,9338
132919,23398-1,"Maidla mõis",,59.21200,24.57967,,,,4101
132913,47306-1,"Ojari",,59.23468,24.61030,,,,4094
132914,47307-1,"Ojari",,59.23469,24.61045,,,,4095
132917,47317-1,"Otsa tee",,59.22225,24.58818,,,,4099
132918,47311-1,"Otsa tee",,59.22226,24.58857,,,,4100
132911,47315-1,"Urumarja tee",,59.23832,24.64262,,,,4092
132912,23307-1,"Urumarja tee",,59.23823,24.64287,,,,4093
14454,23380-1,"Koidu",,59.34406,24.59183,,,,14454
14212,23381-1,"Laagri kool",,59.35038,24.61959,,,,14212
147385,47361-1,"Vanasilla",,59.35054,24.63676,,,,6191
4971,23409-1,"Kuuseheki",,59.32583,24.55374,,,,4971
4972,23410-1,"Kuuseheki",,59.32593,24.55387,,,,4972
4973,23401-1,"Noortekeskus",,59.32541,24.56038,,,,4973
4968,23406-1,"Saue jaam",,59.32467,24.54861,,,,4968
4969,23405-1,"Saue jaam",,59.32485,24.55022,,,,4969
9469,21590-1,"Tammemäe",,59.37300,24.58460,,,,9469
9471,23352-1,"Tammetalu",,59.36730,24.59075,,,,9471
9472,23353-1,"Tammetalu",,59.36688,24.59109,,,,9472
9473,23356-1,"Tuulemurru",,59.35937,24.60197,,,,9473
9474,23357-1,"Tuulemurru",,59.35888,24.60226,,,,9474
126687,23390-1,"Karutiigi",,59.35479,24.57322,,,,52
126688,23391-1,"Karutiigi",,59.35460,24.57324,,,,53
126689,23392-1,"Koru",,59.34975,24.59772,,,,54
126690,23393-1,"Koru",,59.34968,24.59796,,,,55
4923,21918-1,"Luige",,59.20954,24.27698,,,,4923
4924,21917-1,"Luige",,59.20988,24.27686,,,,4924
149991,47374-1,"Nuudi tee",,59.20404,24.29492,,,,6265
149992,47373-1,"Nuudi tee",,59.20380,24.29507,,,,6266
142293,21976-1,"Tipi",,59.19838,24.31398,,,,5892
142315,21977-1,"Tipi",,59.19836,24.31370,,,,5911
10516,21951-1,"Vikerkaare",,59.20888,24.33483,,,,10516
142294,21970-1,"Ülevälja",,59.20276,24.31778,,,,5893
142312,21971-1,"Ülevälja",,59.20293,24.31762,,,,5908
142296,21980-1,"Anniko tee",,59.19747,24.38190,,,,5895
142317,21981-1,"Anniko tee",,59.19760,24.38170,,,,5913
4927,21925-1,"Laitse loss",,59.19496,24.39455,,,,4927
4928,21926-1,"Laitse loss",,59.19529,24.39355,,,,4928
4925,21928-1,"Laitse seltsimaja",,59.19679,24.32074,,,,4925
4926,21927-1,"Laitse seltsimaja",,59.19683,24.32027,,,,4926
4922,21915-1,"Munalaskme tee",,59.19552,24.29072,,,,4922
142292,21974-1,"Oru",,59.19794,24.35223,,,,5891
142314,21975-1,"Oru",,59.19802,24.35224,,,,5910
4876,22719-1,"Nissi kauplus",,59.10490,24.31331,,,,4876
4877,22720-1,"Nissi kauplus",,59.10475,24.31210,,,,4877
126614,23428-1,"Saue kool",,59.32085,24.56207,,,,47
147386,47362-1,"Kuuse",,59.34737,24.62158,,,,6192
4722,23301-1,"Bioloogia",,59.39166,24.58014,,,,4722
4723,23302-1,"Bioloogia",,59.39200,24.58304,,,,4723
4720,23305-1,"Harku",,59.38909,24.55600,,,,4720
4721,23306-1,"Harku",,59.38946,24.55819,,,,4721
4718,23309-1,"Hüüru",,59.37846,24.53792,,,,4718
4719,23310-1,"Hüüru",,59.37872,24.53853,,,,4719
4707,23319-1,"Pihuoja",,59.34488,24.48090,,,,4707
4709,23320-1,"Pihuoja",,59.34353,24.48073,,,,4709
4716,23324-1,"Pühaküla",,59.36719,24.51616,,,,4716
4717,23323-1,"Pühaküla",,59.36748,24.51801,,,,4717
4714,23336-1,"Vääna-Posti",,59.36169,24.49738,,,,4714
4715,23335-1,"Vääna-Posti",,59.36276,24.50006,,,,4715
134560,47326-1,"Suurekivi",,59.30903,24.47930,,,,4403
134561,47327-1,"Suurekivi",,59.30906,24.47915,,,,4404
4945,23312-1,"Jõgisoo",,59.26725,24.51538,,,,4945
4946,23311-1,"Jõgisoo",,59.26847,24.51727,,,,4946
4962,23314-1,"Kanama",,59.30996,24.57003,,,,4962
4963,23313-1,"Kanama",,59.30861,24.56897,,,,4963
9274,21946-1,"Kernu",,59.13518,24.49932,,,,9274
9275,21947-1,"Kernu",,59.13409,24.49904,,,,9275
4897,21910-1,"Kohatu",,59.14561,24.50570,,,,4897
4898,21909-1,"Kohatu",,59.14586,24.50580,,,,4898
4949,23339-1,"Laiavainu",,59.28537,24.53458,,,,4949
4950,23358-1,"Laiavainu",,59.28550,24.53546,,,,4950
1622,20821-1,"Nõlvaku",,59.35072,24.62794,,,,1622
1623,20822-1,"Nõlvaku",,59.35044,24.62691,,,,1623
4978,23318-1,"Peoleo",,59.33567,24.60721,,,,4978
4947,23341-1,"Uku tee",,59.27692,24.52405,,,,4947
4948,23264-1,"Uku tee",,59.27826,24.52638,,,,4948
130186,23396-1,"Urda",,59.34184,24.61570,,,,207
138130,47344-1,"Kurvi tee",,59.34141,24.55539,,,,5648
126691,23386-1,"Püha",,59.35802,24.53140,,,,56
126692,23387-1,"Püha",,59.35795,24.53144,,,,57
136882,47338-1,"Roosi tee",,59.36413,24.51458,,,,4653
4891,21906-1,"Haiba",,59.12770,24.46963,,,,4891
4892,21905-1,"Haiba",,59.12760,24.46951,,,,4892
4895,21912-1,"Kernu kool",,59.13600,24.49824,,,,4895
4896,21911-1,"Kernu kool",,59.13613,24.49849,,,,4896
4887,21934-1,"Miilimaa",,59.12212,24.41300,,,,4887
4888,21933-1,"Miilimaa",,59.12191,24.41188,,,,4888
4889,21938-1,"Mõnuste",,59.12511,24.43589,,,,4889
4890,21937-1,"Mõnuste",,59.12497,24.43827,,,,4890
4881,22733-1,"Odulemma",,59.12391,24.36201,,,,4881
4874,22701-1,"Alema",,59.09587,24.34077,,,,4874
4875,22702-1,"Alema",,59.09345,24.34225,,,,4875
4872,22729-1,"Jaama tee",,59.11854,24.30824,,,,4872
4873,22730-1,"Jaama tee",,59.11859,24.30835,,,,4873
4878,22718-1,"Nissi kool",,59.10830,24.31358,,,,4878
4879,22717-1,"Nissi kool",,59.10841,24.31386,,,,4879
4917,22703-1,"Aude",,59.16478,24.25298,,,,4917
4918,22704-1,"Aude",,59.16489,24.25327,,,,4918
4920,22715-1,"Munalaskme",,59.18476,24.26475,,,,4920
4919,22716-1,"Männimaa",,59.19129,24.26943,,,,4919
137900,22756-1,"Sepu tee",,59.19114,24.26157,,,,164
137901,22757-1,"Sepu tee",,59.19036,24.26174,,,,239
144716,21989-1,"Kasekännu",,59.19389,24.45267,,,,6004
144718,21988-1,"Kasekännu",,59.19406,24.45340,,,,6005
4909,21922-1,"Kääbastemägi",,59.19844,24.46795,,,,4909
9271,21950-1,"Kääbastemägi",,59.19854,24.46803,,,,9271
4929,21930-1,"Laitse",,59.19413,24.39910,,,,4929
4930,21929-1,"Laitse",,59.19343,24.39754,,,,4930
4912,21941-1,"Ruila kool",,59.19220,24.43963,,,,4912
136994,47340-1,"Veskirahva",,59.35377,24.59971,,,,4851
136995,47341-1,"Veskirahva",,59.35379,24.60009,,,,4856
144719,47357-1,"Suurevälja põik",,59.32576,24.54732,,,,6006
144720,47356-1,"Suurevälja põik",,59.32622,24.54751,,,,6007
12979,23411-1,"Kiviloo",,59.31129,24.55625,,,,12979
9951,23420-1,"Saue tee",,59.31232,24.56252,,,,9951
4957,23415-1,"Tõkke",,59.31340,24.53665,,,,4957
4953,23334-1,"Valingu",,59.31704,24.50185,,,,4953
4954,23333-1,"Valingu",,59.31710,24.49981,,,,4954
4974,23402-1,"Noortekeskus",,59.32577,24.56028,,,,4974
4964,23404-1,"Paulig",,59.31725,24.56938,,,,4964
4965,23403-1,"Paulig",,59.31709,24.56960,,,,4965
4975,23418-1,"Pärnasalu",,59.32306,24.56390,,,,4975
12983,23417-1,"Pärnasalu",,59.32342,24.56354,,,,12983
9615,23419-1,"Saue tee",,59.31290,24.56279,,,,9615
10404,23421-1,"Saue tee",,59.31298,24.56230,,,,10404
4976,23414-1,"Tule",,59.31973,24.56806,,,,4976
4977,23413-1,"Tule",,59.32016,24.56800,,,,4977
147388,47366-1,"Ees-Lehetu",,59.05688,24.26227,,,,6194
147389,47363-1,"Ees-Lehetu",,59.05673,24.26275,,,,6195
132905,22754-1,"Kultuurimaja",,59.07480,24.24063,,,,3623
132906,22755-1,"Kultuurimaja",,59.07510,24.24046,,,,4088
4864,22713-1,"Lehetu",,59.04475,24.26104,,,,4864
4860,22735-1,"Turba kauplus",,59.08057,24.23611,,,,4860
4861,22736-1,"Turba kauplus",,59.08029,24.23630,,,,4861
139315,47354-1,"Hindreku",,59.24554,24.48803,,,,5765
139314,47349-1,"Laane",,59.25705,24.48405,,,,2679
139316,47355-1,"Rehe",,59.24325,24.48691,,,,5766
138957,47348-1,"Tuula seltsimaja",,59.27673,24.45785,,,,5735
10801,23422-1,"Laastu",,59.32033,24.54203,,,,10801
10802,23423-1,"Laastu",,59.32101,24.54281,,,,10802
4966,23408-1,"Rauna",,59.31841,24.53980,,,,4966
4967,23407-1,"Rauna",,59.31745,24.53873,,,,4967
12977,23426-1,"Tõkke",,59.31423,24.53520,,,,12977
126693,23384-1,"Aila",,59.29408,24.49872,,,,58
126694,23385-1,"Aila",,59.29382,24.49867,,,,59
134568,47334-1,"Jalaka tee",,59.31917,24.51211,,,,4411
134662,47336-1,"Jalaka tee",,59.31916,24.51258,,,,4420
132937,47308-1,"Tuuleveski",,59.32246,24.51138,,,,4116
132938,23379-1,"Tuuleveski",,59.32247,24.51123,,,,4117
126577,23383-1,"Vanamõisa mõis",,59.32500,24.51391,,,,46
13359,23371-1,"Kodasema",,59.39593,24.53559,,,,13359
13360,23370-1,"Kodasema",,59.39552,24.53658,,,,13360
10369,21591-1,"Vatsla",,59.40198,24.50486,,,,10369
1620,20818-1,"Laagri alevik",,59.35163,24.61199,,,,1620
13183,20824-1,"Laagri alevik",,59.35164,24.61323,,,,13183
1618,20816-1,"Rahnu",,59.35137,24.62143,,,,1618
1621,20820-1,"Rahnu",,59.35123,24.62355,,,,1621
132933,47302-1,"Karu tee",,59.26554,24.53279,,,,4113
132934,47303-1,"Karu tee",,59.26546,24.53288,,,,4114
132932,47301-1,"Voore mõis",,59.25799,24.58025,,,,4112
9686,23359-1,"Harutee",,59.24334,24.49045,,,,9686
9752,23365-1,"Harutee",,59.24289,24.49519,,,,9752
4935,21902-1,"Allikmäe",,59.21857,24.43659,,,,4935
4936,21901-1,"Allikmäe",,59.21881,24.43701,,,,4936
4858,22706-1,"Ellamaa",,59.04750,24.17418,,,,4858
4859,22705-1,"Ellamaa",,59.04758,24.17448,,,,4859
4884,22710-1,"Hürjapea",,59.13964,24.33019,,,,4884
4885,22709-1,"Hürjapea",,59.13941,24.32985,,,,4885
4866,22712-1,"Kivitammi",,59.10018,24.25224,,,,4866
4867,22711-1,"Kivitammi",,59.09957,24.25220,,,,4867
4915,21908-1,"Rallipargi",,59.17668,24.36274,,,,4915
4916,21907-1,"Rallipargi",,59.17729,24.36609,,,,4916
4870,22721-1,"Riisipere",,59.12304,24.30352,,,,4870
4871,22722-1,"Riisipere",,59.12307,24.30401,,,,4871
4868,22727-1,"Riisipere mõis",,59.11895,24.28164,,,,4868
4869,22728-1,"Riisipere mõis",,59.11871,24.28051,,,,4869
4933,21944-1,"Ruila",,59.19780,24.41144,,,,4933
4934,21943-1,"Ruila",,59.19792,24.41303,,,,4934
9172,22739-1,"Turba",,59.08241,24.23303,,,,9172
9173,22740-1,"Turba",,59.08233,24.23263,,,,9173
12555,22749-1,"Vilumäe",,59.11362,24.26177,,,,12555
12556,22750-1,"Vilumäe",,59.11380,24.26299,,,,12556
4943,23308-1,"Harutee",,59.23965,24.49571,,,,4943
150911,47383-1,"Harutee",,59.23957,24.49566,,,,6329
147390,47364-1,"Kooli talu",,59.22448,24.52307,,,,6196
147391,47367-1,"Kooli talu",,59.22442,24.52340,,,,6197
4939,23326-1,"Kuristo",,59.21526,24.55452,,,,4939
4940,23325-1,"Kuristo",,59.21533,24.55463,,,,4940
132922,47304-1,"Külakõrtsu",,59.22067,24.53229,,,,4104
132923,47305-1,"Külakõrtsu",,59.22055,24.53237,,,,4105
9330,23348-1,"Reedi",,59.23407,24.50399,,,,9330
132928,47310-1,"Saksa",,59.23728,24.49903,,,,4110
132929,47318-1,"Saksa",,59.23732,24.49911,,,,4111
132920,23399-1,"Ülesoo",,59.19794,24.59852,,,,4102
4907,21904-1,"Allika",,59.18671,24.48159,,,,4907
4908,21903-1,"Allika",,59.18736,24.48059,,,,4908
142295,21978-1,"Ehala",,59.16884,24.49954,,,,5894
142316,21979-1,"Ehala",,59.16879,24.49984,,,,5912
138954,47345-1,"Harutee",,59.23900,24.48741,,,,5732
138955,47346-1,"Harutee",,59.23904,24.48752,,,,5733
144714,21991-1,"Järveotsa",,59.16288,24.50229,,,,6002
144715,21990-1,"Järveotsa",,59.16251,24.50233,,,,6003
4910,21921-1,"Kääbastemägi",,59.19784,24.47002,,,,4910
14849,21960-1,"Kääbastemägi",,59.19921,24.46898,,,,14849
4913,21936-1,"Muusika",,59.21768,24.46928,,,,4913
4914,21935-1,"Muusika",,59.21757,24.46935,,,,4914
139317,47352-1,"Sinilille",,59.20599,24.46504,,,,5767
139318,47353-1,"Sinilille",,59.20616,24.46477,,,,5768
13356,23368-1,"Toominga",,59.23164,24.48121,,,,13356
13357,23369-1,"Toominga",,59.23149,24.48105,,,,13357
139319,47350-1,"Torupilli",,59.17216,24.49565,,,,5769
139320,47351-1,"Torupilli",,59.17219,24.49548,,,,5770
14481,23382-1,"Ääsmäe kool",,59.24541,24.50446,,,,14481
134562,47328-1,"Ööbiku",,59.30520,24.47904,,,,4405
134563,47329-1,"Ööbiku",,59.30516,24.47896,,,,4406
9475,23354-1,"Metsa",,59.35389,24.60610,,,,9475
9476,23355-1,"Metsa",,59.35350,24.60711,,,,9476
12953,00123-1,"Keskpäeva tee",,59.43384,24.56078,,,,12953
133449,00141-1,"Mõisa",,59.42676,24.65500,,,,4149
850,01902-1,"Astangu",,59.40463,24.63434,,,,850
129447,01901-1,"Astangu",,59.40452,24.63400,,,,179
851,01903-1,"Harku-Kadaka",,59.40493,24.63888,,,,851
852,01904-1,"Harku-Kadaka",,59.40462,24.63782,,,,852
139009,01905-1,"Jalami",,59.40494,24.62722,,,,5737
139010,01906-1,"Jalami",,59.40475,24.62897,,,,5738
128605,00310-1,"Meistri",,59.41633,24.65641,,,,131
132184,02114-1,"Päevalille",,59.42140,24.64953,,,,4014
132185,02115-1,"Päevalille",,59.42056,24.65009,,,,4016
132179,02112-1,"Rebasemägi",,59.41820,24.65376,,,,4012
132183,02113-1,"Rebasemägi",,59.41728,24.65454,,,,4013
845,01607-1,"Järveotsa kool",,59.40715,24.63963,,,,845
846,01608-1,"Järveotsa kool",,59.40695,24.64037,,,,846
839,01601-1,"Järveotsa tee",,59.40911,24.63241,,,,839
847,01609-1,"Järveotsa tee",,59.40893,24.63229,,,,847
137934,03608-1,"Rehe",,59.39793,24.63841,,,,4316
137935,03609-1,"Rehe",,59.39891,24.64169,,,,4318
785,00101-1,"Kakumäe",,59.45914,24.57318,,,,785
786,00102-1,"Kakumäe",,59.45969,24.57290,,,,786
796,00111-1,"Kakumäe tee",,59.44205,24.59492,,,,796
797,00112-1,"Kakumäe tee",,59.44292,24.59407,,,,797
794,00124-1,"Landi",,59.44871,24.59005,,,,794
795,00110-1,"Landi",,59.44878,24.59003,,,,795
133437,00130-1,"Räime",,59.44719,24.59120,,,,4138
133438,00131-1,"Räime",,59.44676,24.59104,,,,4139
787,00103-1,"Soolahe tee",,59.45573,24.57782,,,,787
788,00104-1,"Soolahe tee",,59.45617,24.57740,,,,788
791,00107-1,"Sooranna tee",,59.45142,24.58467,,,,791
792,00108-1,"Sooranna tee",,59.45193,24.58391,,,,792
789,00105-1,"Teeotsa",,59.45371,24.58077,,,,789
790,00106-1,"Teeotsa",,59.45377,24.58070,,,,790
133434,00127-1,"Tõnu",,59.43978,24.59749,,,,4135
133435,00128-1,"Tõnu",,59.43934,24.59772,,,,4136
798,00113-1,"Vismeistri",,59.43612,24.60118,,,,798
133433,00126-1,"Vismeistri",,59.43648,24.60096,,,,4134
141512,00307-2,"Haabersti ring",,59.42415,24.64332,,,,5879
141513,00307-3,"Haabersti ring",,59.42423,24.64294,,,,5880
141515,00602-2,"Haabersti ring",,59.42394,24.64250,,,,5882
813,00306-1,"Sõba",,59.42655,24.63247,,,,813
819,00601-1,"Sõba",,59.42645,24.63231,,,,819
139007,02001-1,"Kotermaa",,59.40461,24.61551,,,,172
139008,02002-1,"Kotermaa",,59.40517,24.61643,,,,5736
142467,02003-1,"Moonalao",,59.40267,24.61327,,,,5924
142468,02004-1,"Moonalao",,59.40249,24.61289,,,,5925
793,00109-1,"Landi",,59.44889,24.59053,,,,793
812,00305-1,"Tanuma",,59.42787,24.63318,,,,812
133447,00140-1,"Mõisa",,59.42747,24.65513,,,,4148
821,00701-1,"Haabersti",,59.42370,24.64863,,,,821
141510,00308-2,"Haabersti",,59.42478,24.65077,,,,5877
141511,00308-3,"Haabersti",,59.42469,24.65038,,,,5878
141664,00701-2,"Haabersti",,59.42380,24.64901,,,,5885
1126,08601-1,"Humala",,59.42953,24.69245,,,,1126
1127,08602-1,"Humala",,59.42987,24.69144,,,,1127
840,01602-1,"Järvekalda",,59.40760,24.62296,,,,840
841,01603-1,"Järvekalda",,59.40767,24.62207,,,,841
842,01604-1,"Järveotsa tee",,59.40907,24.62967,,,,842
843,01605-1,"Järveotsa tee",,59.40877,24.62813,,,,843
1128,08701-1,"Looga",,59.42778,24.67261,,,,1128
1130,08801-1,"Looga",,59.42822,24.67334,,,,1130
1129,08702-1,"Mustjõe",,59.42868,24.68091,,,,1129
1131,08802-1,"Mustjõe",,59.42894,24.67944,,,,1131
9477,21586-1,"Paemurru",,59.39895,24.60296,,,,9477
9478,21587-1,"Paemurru",,59.39930,24.60462,,,,9478
1110,07901-1,"Pirni",,59.42929,24.69814,,,,1110
1111,07902-1,"Pirni",,59.42945,24.69915,,,,1111
816,00309-1,"Zoo",,59.42643,24.65805,,,,816
822,00702-1,"Zoo",,59.42621,24.65889,,,,822
4724,23329-1,"Uuemäe",,59.39537,24.59334,,,,4724
4725,23330-1,"Uuemäe",,59.39595,24.59567,,,,4725
817,00401-1,"Pikaliiva",,59.42820,24.62542,,,,817
818,00501-1,"Pikaliiva",,59.42797,24.62587,,,,818
3389,00120-1,"Printsu tee",,59.43018,24.61169,,,,3389
3390,00121-1,"Printsu tee",,59.42984,24.61297,,,,3390
13786,00403-1,"Tähistaeva",,59.42877,24.62088,,,,13786
13787,00404-1,"Tähistaeva",,59.42926,24.61840,,,,13787
150066,00144-1,"Rannaniidu",,59.43684,24.56754,,,,6268
810,00303-1,"Hälli",,59.43435,24.62926,,,,810
133443,00136-1,"Hälli",,59.43337,24.63090,,,,4144
133436,00129-1,"Kakumäe tee",,59.44269,24.59528,,,,4137
799,00114-1,"Lesta",,59.44681,24.60446,,,,799
133439,00132-1,"Lesta",,59.44702,24.60528,,,,4140
805,00201-1,"Merirahu",,59.44492,24.61246,,,,805
133440,00133-1,"Merirahu",,59.44448,24.61315,,,,4141
806,00202-1,"Paljandi",,59.44007,24.62310,,,,806
133441,00134-1,"Paljandi",,59.43934,24.62418,,,,4142
811,00304-1,"Rocca al Mare",,59.43120,24.63725,,,,811
133444,00137-1,"Rocca al Mare",,59.43087,24.63869,,,,4145
133445,00138-1,"Rocca al Mare kool",,59.43026,24.65105,,,,4146
133446,00139-1,"Rocca al Mare kool",,59.43018,24.65139,,,,4147
807,00203-1,"Õismäe raba",,59.43722,24.62730,,,,807
133442,00135-1,"Õismäe raba",,59.43693,24.62726,,,,4143
800,00115-1,"Tiskre",,59.43821,24.57210,,,,800
4056,00122-1,"Alemaa",,59.43551,24.61289,,,,4056
133432,00125-1,"Alemaa",,59.43603,24.61159,,,,4133
13430,00311-1,"Pikaliiva",,59.42825,24.62769,,,,13430
133430,00300-1,"Pikaliiva",,59.42917,24.62579,,,,4131
808,00301-1,"Tuleraua",,59.43140,24.62213,,,,808
133431,00299-1,"Tuleraua",,59.43189,24.62175,,,,4132
823,00801-1,"Karikakra",,59.41683,24.65260,,,,823
824,00802-1,"Karikakra",,59.41821,24.65122,,,,824
837,01401-1,"Kullerkupu",,59.41122,24.64768,,,,837
848,01701-1,"Kullerkupu",,59.41102,24.64775,,,,848
830,01001-1,"Meelespea",,59.41563,24.63972,,,,830
831,01002-1,"Meelespea",,59.41646,24.63966,,,,831
141104,01402-1,"Meistri",,59.41553,24.65547,,,,5846
141105,01403-1,"Meistri",,59.41542,24.65624,,,,5847
835,01301-1,"Nurmenuku",,59.41328,24.65295,,,,835
836,01302-1,"Nurmenuku",,59.41402,24.65407,,,,836
139068,01004-1,"Päevalille",,59.42046,24.64684,,,,240
833,01102-1,"Rukkilille",,59.41375,24.64023,,,,833
834,01103-1,"Rukkilille",,59.41339,24.64028,,,,834
825,00901-1,"Sinilille",,59.41944,24.64545,,,,825
826,00911-1,"Sinilille",,59.41945,24.64590,,,,826
827,00902-1,"Sinilille",,59.41922,24.64261,,,,827
828,00903-1,"Sinilille",,59.42043,24.64478,,,,828
13011,00902-2,"Sinilille",,59.41980,24.64398,,,,13011
9659,00604-1,"Sõudebaasi",,59.41650,24.63590,,,,9659
9660,01003-1,"Sõudebaasi",,59.41743,24.63693,,,,9660
832,01606-1,"Väike-Õismäe",,59.41281,24.63785,,,,832
844,01101-1,"Väike-Õismäe",,59.41224,24.63969,,,,844
13089,01104-1,"Väike-Õismäe parkla",,59.41306,24.63436,,,,13089
13090,01610-1,"Väike-Õismäe parkla",,59.41275,24.63655,,,,13090
4334,21219-1,"Estonia",,59.43342,24.75064,,,,4334
1253,11307-1,"Kitseküla",,59.42029,24.74036,,,,1253
93449,11312-1,"Kitseküla",,59.42039,24.73866,,,,11
93450,11313-1,"Kitseküla",,59.41995,24.74018,,,,12
1244,11202-1,"Virmalise",,59.42130,24.73715,,,,1244
1297,12203-1,"A. Laikmaa",,59.43614,24.75755,,,,1297
1636,21209-2,"A. Laikmaa",,59.43642,24.75725,,,,1636
3603,21209-1,"A. Laikmaa",,59.43591,24.75726,,,,3603
10402,21221-1,"A. Laikmaa",,59.43509,24.75776,,,,10402
145914,21223-1,"A. Laikmaa",,59.43454,24.75786,,,,6056
1352,13101-1,"Hotell Olümpia",,59.43075,24.75874,,,,1352
1276,11901-1,"Kadriorg",,59.43864,24.78426,,,,1276
1277,11902-1,"L. Koidula",,59.43877,24.77712,,,,1277
148067,16305-1,"Ahtri",,59.44038,24.75490,,,,5786
148070,16211-1,"Siimeoni",,59.44018,24.75919,,,,5787
1325,12501-1,"Veerenni",,59.42576,24.74817,,,,1325
1243,11201-1,"Koidu",,59.42880,24.73160,,,,1243
1242,11103-1,"Tõnismägi",,59.43022,24.73629,,,,1242
1627,21201-1,"Estonia",,59.43459,24.75237,,,,1627
148997,21210-1,"Estonia",,59.43500,24.75295,,,,6215
1280,12001-1,"Vabaduse väljak",,59.43281,24.74713,,,,1280
1281,12002-1,"Vabaduse väljak",,59.43299,24.74721,,,,1281
1282,12002-2,"Vabaduse väljak",,59.43304,24.74642,,,,1282
1341,12901-1,"Bussijaam",,59.42683,24.77097,,,,1341
1342,12902-1,"Juhkentali",,59.42284,24.77095,,,,1342
14340,12907-1,"Juhkentali",,59.42126,24.76924,,,,14340
134188,12909-1,"Varre",,59.41906,24.75412,,,,4274
14384,12906-1,"Veskiposti",,59.42122,24.76395,,,,14384
14385,12908-1,"Veskiposti",,59.42085,24.76426,,,,14385
142534,11507-1,"Vesivärava",,59.43219,24.78226,,,,5926
142535,11508-1,"Vesivärava",,59.43253,24.78202,,,,5927
1257,11401-1,"Gonsiori",,59.43435,24.76788,,,,1257
1258,11402-1,"Gonsiori",,59.43398,24.76995,,,,1258
1314,12220-3,"Kivisilla",,59.43548,24.75959,,,,1314
1318,12305-1,"Kivisilla",,59.43535,24.75839,,,,1318
1319,12305-2,"Kivisilla",,59.43531,24.75867,,,,1319
3102,12220-2,"Kivisilla",,59.43555,24.75897,,,,3102
3103,12220-1,"Kivisilla",,59.43563,24.75864,,,,3103
10403,12305-3,"Kivisilla",,59.43517,24.75970,,,,10403
1259,11501-1,"Laulupeo",,59.43315,24.77774,,,,1259
1260,11502-1,"Laulupeo",,59.43307,24.77711,,,,1260
1300,12206-1,"Hobujaama",,59.43802,24.75741,,,,1300
1301,12207-1,"Hobujaama",,59.43761,24.75733,,,,1301
1272,11801-1,"J. Poska",,59.44012,24.78559,,,,1272
1261,11601-1,"Bussijaam",,59.42679,24.77312,,,,1261
1353,13102-1,"Hotell Olümpia",,59.42893,24.75874,,,,1353
1343,12903-1,"Püssirohu",,59.42793,24.76540,,,,1343
1344,12904-1,"Püssirohu",,59.42781,24.76492,,,,1344
2300,13601-1,"Mõigu",,59.40628,24.81604,,,,2300
1345,12905-1,"Filtri tee",,59.42161,24.77381,,,,1345
1351,13007-1,"Filtri tee",,59.42074,24.77166,,,,1351
4052,13009-1,"Järvevana",,59.42263,24.78577,,,,4052
126808,07504-1,"Renniotsa",,59.41449,24.76057,,,,70
126809,07505-1,"Renniotsa",,59.41296,24.75794,,,,71
1372,13604-1,"Kaabli",,59.40806,24.81126,,,,1372
1373,13605-1,"Kaabli",,59.40792,24.81037,,,,1373
129018,13602-1,"Kanali tee",,59.40813,24.80792,,,,154
1333,12605-1,"Tõnismägi",,59.43148,24.73952,,,,1333
1283,12003-1,"Vabaduse väljak",,59.43251,24.74267,,,,1283
1284,12003-2,"Vabaduse väljak",,59.43235,24.74206,,,,1284
1285,12003-3,"Vabaduse väljak",,59.43217,24.74137,,,,1285
1631,21206-1,"Kaubamaja",,59.43437,24.75576,,,,1631
1632,21206-2,"Kaubamaja",,59.43500,24.75569,,,,1632
1633,21206-3,"Kaubamaja",,59.43456,24.75575,,,,1633
14902,21222-1,"Kaubamaja",,59.43441,24.75606,,,,14902
1089,07501-1,"Tallinn-Väike",,59.41335,24.74839,,,,1089
146862,13005-2,"Lindakivi",,59.42010,24.79391,,,,6152
1315,12301-1,"Hotell Olümpia",,59.43102,24.76046,,,,1315
1354,13103-1,"Hotell Olümpia",,59.43111,24.76120,,,,1354
1328,12504-1,"Keskhaigla",,59.42880,24.75253,,,,1328
1327,12503-1,"Liivalaia",,59.42806,24.74938,,,,1327
11608,11610-1,"Lubja",,59.42752,24.77859,,,,11608
1090,07502-1,"Auru",,59.41278,24.75255,,,,1090
1091,07503-1,"Luite",,59.41486,24.75517,,,,1091
136269,10508-1,"Kanuti",,59.44096,24.75340,,,,4590
1293,12103-1,"Mere puiestee",,59.43762,24.75321,,,,1293
1294,12104-1,"Mere puiestee",,59.43756,24.75337,,,,1294
1303,12209-1,"Mere puiestee",,59.43831,24.75407,,,,1303
1304,12210-1,"Mere puiestee",,59.43782,24.75364,,,,1304
150730,00159-1,"Ajutine peatus",,59.43972,24.78112,,,,1698
150731,00160-1,"Ajutine peatus",,59.43831,24.77088,,,,1701
1230,10702-1,"F. R. Kreutzwaldi",,59.43830,24.76981,,,,1230
1231,10702-2,"F. R. Kreutzwaldi",,59.43839,24.77034,,,,1231
1305,12211-1,"Hobujaama",,59.43711,24.75862,,,,1305
3402,12211-2,"Hobujaama",,59.43711,24.75866,,,,3402
3604,12223-1,"Hobujaama",,59.43726,24.75833,,,,3604
3605,12222-1,"Hobujaama",,59.43723,24.75838,,,,3605
3606,12221-1,"Hobujaama",,59.43740,24.75819,,,,3606
1273,11802-1,"J. Poska",,59.44097,24.78642,,,,1273
1274,11803-2,"J. Poska",,59.44098,24.78701,,,,1274
1275,11803-1,"J. Poska",,59.44083,24.78666,,,,1275
1278,11903-2,"L. Koidula",,59.43910,24.77716,,,,1278
1279,11903-1,"L. Koidula",,59.43901,24.77643,,,,1279
1339,12801-1,"Oru",,59.44355,24.80015,,,,1339
1340,12802-1,"Oru",,59.44335,24.80241,,,,1340
132664,12803-1,"Oruvärava",,59.44326,24.80566,,,,4077
1306,12212-1,"Pronksi",,59.43746,24.76375,,,,1306
1308,12214-1,"Pronksi",,59.43712,24.76218,,,,1308
1309,12214-2,"Pronksi",,59.43711,24.76158,,,,1309
147022,11804-1,"Reidi tee",,59.44205,24.78883,,,,6155
147023,11805-1,"Reidi tee",,59.44232,24.79074,,,,6156
1232,10703-1,"Tallinna Ülikool",,59.43854,24.77137,,,,1232
1233,10704-1,"Tallinna Ülikool",,59.43843,24.77141,,,,1233
1262,11602-1,"Bussijaam",,59.42785,24.77481,,,,1262
146374,11602-2,"Bussijaam",,59.42803,24.77550,,,,5954
1236,10901-1,"Hotell Tallinn",,59.43491,24.73149,,,,1236
1237,11001-1,"Tehnika",,59.43460,24.72604,,,,1237
147026,11807-1,"Lauluväljak",,59.44510,24.79787,,,,6158
150553,00152-1,"Lauluväljak",,59.44604,24.80003,,,,6296
1335,12701-1,"Lillepaviljon",,59.44839,24.80297,,,,1335
1336,12702-1,"Lillepaviljon",,59.44816,24.80330,,,,1336
1337,12703-1,"Maarjamägi",,59.45177,24.80693,,,,1337
1338,12704-1,"Maarjamägi",,59.45293,24.80824,,,,1338
142464,12706-1,"Mälestusvälja",,59.45648,24.81028,,,,5921
1223,10503-1,"Linnahall",,59.44347,24.75011,,,,1223
1082,07404-1,"Hallivanamehe",,59.40608,24.73291,,,,1082
1083,07405-1,"Hallivanamehe",,59.40564,24.73206,,,,1083
1053,06801-1,"Järve",,59.39998,24.72803,,,,1053
10470,06803-1,"Järve",,59.40162,24.72831,,,,10470
1079,07401-1,"Kalev",,59.40968,24.73665,,,,1079
1080,07402-1,"Kalev",,59.40982,24.73606,,,,1080
1081,07403-1,"Kalev",,59.40921,24.73565,,,,1081
1329,12601-1,"Kosmos",,59.42904,24.74354,,,,1329
1330,12602-1,"Kosmos",,59.42889,24.74334,,,,1330
1331,12603-1,"Kosmos",,59.42823,24.74232,,,,1331
1332,12604-1,"Kosmos",,59.42902,24.74296,,,,1332
1076,07301-1,"Tallinn-Väike",,59.41495,24.73992,,,,1076
1086,07407-1,"Tallinn-Väike",,59.41444,24.73943,,,,1086
1087,07408-1,"Tallinn-Väike",,59.41544,24.73956,,,,1087
1286,12004-1,"Vabaduse väljak",,59.43388,24.74661,,,,1286
1287,12005-1,"Vabaduse väljak",,59.43202,24.74585,,,,1287
1288,12006-1,"Vabaduse väljak",,59.43271,24.74588,,,,1288
1289,12007-1,"Vabaduse väljak",,59.43322,24.74579,,,,1289
1324,12403-1,"Vabaduse väljak",,59.43396,24.74633,,,,1324
1247,11301-1,"Vineeri",,59.42374,24.74287,,,,1247
1248,11302-1,"Vineeri",,59.42466,24.74269,,,,1248
1249,11303-1,"Vineeri",,59.42288,24.74234,,,,1249
1250,11304-1,"Vineeri",,59.42232,24.74239,,,,1250
1251,11305-1,"Vineeri",,59.42465,24.74259,,,,1251
138683,11302-2,"Vineeri",,59.42463,24.74269,,,,5703
1290,12101-1,"Viru",,59.43618,24.75149,,,,1290
1291,12101-2,"Viru",,59.43606,24.75113,,,,1291
1292,12102-1,"Viru",,59.43547,24.74967,,,,1292
1634,21207-1,"Viru",,59.43576,24.75095,,,,1634
1635,21208-1,"Viru",,59.43630,24.75226,,,,1635
4341,12101-3,"Viru",,59.43580,24.75036,,,,4341
1054,06802-1,"Virve",,59.39767,24.72609,,,,1054
136268,10507-1,"Kanuti",,59.44091,24.75316,,,,4589
1225,10601-1,"Linnahall",,59.44332,24.75033,,,,1225
1226,10602-1,"Linnahall",,59.44342,24.75007,,,,1226
147047,10709-1,"Pikksilma",,59.44357,24.77992,,,,6163
147048,10710-1,"Pikksilma",,59.44338,24.78266,,,,6164
147024,11806-1,"Reidi tee",,59.44286,24.78875,,,,6157
147045,10707-1,"Uus-Sadama",,59.44131,24.76954,,,,6161
147046,10708-1,"Uus-Sadama",,59.44158,24.77202,,,,6162
5501,12307-1,"Tornimäe",,59.43373,24.76063,,,,5501
126456,12309-1,"Tornimäe",,59.43319,24.76136,,,,40
1228,10606-1,"Reisisadama A-Terminal",,59.44461,24.76014,,,,1228
13603,10609-1,"Reisisadama A-terminal",,59.44455,24.76015,,,,13603
1241,11102-1,"Koidu",,59.42919,24.72950,,,,1241
129019,13603-1,"Kanali tee",,59.40837,24.80627,,,,155
133530,13304-1,"Kanali tee",,59.40778,24.80649,,,,3220
130009,43168-1,"Oomi",,59.40266,24.81273,,,,206
1264,11604-1,"Bussijaam",,59.42857,24.77622,,,,1264
11607,11606-2,"Bussijaam",,59.42828,24.77670,,,,11607
11609,11605-2,"Bussijaam",,59.42754,24.77773,,,,11609
11610,11603-2,"Bussijaam",,59.42816,24.77695,,,,11610
11605,11707-1,"Keskturg",,59.43182,24.76779,,,,11605
11606,11702-2,"Keskturg",,59.43192,24.76757,,,,11606
11611,11706-1,"Keskturg",,59.43160,24.76755,,,,11611
11612,11701-2,"Keskturg",,59.43163,24.76849,,,,11612
138901,13516-1,"Lennujaam",,59.41646,24.79659,,,,5726
1349,13005-1,"Lindakivi",,59.41963,24.79161,,,,1349
1350,13006-1,"Lindakivi",,59.41953,24.79254,,,,1350
1267,11607-1,"Lubja",,59.42730,24.77888,,,,1267
4430,23152-1,"Mõigu",,59.40434,24.81063,,,,4430
4431,23151-1,"Mõigu",,59.40489,24.81052,,,,4431
1316,12302-1,"Paberi",,59.43354,24.76246,,,,1316
1317,12303-1,"Paberi",,59.43353,24.76231,,,,1317
12742,13606-1,"Pühamägi",,59.41124,24.80213,,,,12742
1346,13001-1,"Sossimägi",,59.42531,24.78336,,,,1346
1347,13002-1,"Sossimägi",,59.42448,24.78432,,,,1347
1348,13008-1,"Sossimägi",,59.42547,24.78186,,,,1348
1628,21203-2,"Estonia",,59.43386,24.75259,,,,1628
1629,21204-1,"Estonia",,59.43352,24.75195,,,,1629
1630,21205-1,"Estonia",,59.43390,24.75177,,,,1630
14969,21203-1,"Estonia",,59.43368,24.75282,,,,14969
10378,21217-2,"Estonia 2",,59.43356,24.75201,,,,10378
4325,21217-3,"Estonia 3",,59.43349,24.75216,,,,4325
4326,21217-4,"Estonia 4",,59.43342,24.75226,,,,4326
4327,21217-5,"Estonia 5",,59.43335,24.75237,,,,4327
4328,21217-6,"Estonia 6",,59.43327,24.75248,,,,4328
1240,11101-1,"Endla",,59.42934,24.72501,,,,1240
1245,11203-1,"Lilleküla jaam",,59.42606,24.72793,,,,1245
1238,11002-1,"Tehnika",,59.43374,24.72367,,,,1238
1077,07302-1,"Tallinn-Väike",,59.41367,24.73718,,,,1077
1078,07303-1,"Tallinn-Väike",,59.41433,24.73849,,,,1078
1088,07409-1,"Tallinn-Väike",,59.41419,24.73841,,,,1088
1772,10905-1,"A. Adamsoni",,59.43306,24.73439,,,,1772
1983,21104-1,"Balti jaam",,59.43956,24.73790,,,,1983
1771,10904-1,"Hotell Tallinn",,59.43427,24.73352,,,,1771
1769,10902-1,"Toompark",,59.43682,24.73333,,,,1769
1773,12405-1,"Tõnismägi",,59.43210,24.73629,,,,1773
4098,10701-3,"Reisisadama D-terminal",,59.44270,24.76475,,,,4098
13583,10705-1,"Reisisadama D-terminal",,59.44306,24.76665,,,,13583
143814,10706-1,"Reisisadama D-terminal",,59.44310,24.76675,,,,5983
1313,12218-1,"Maneeži",,59.43560,24.76103,,,,1313
1322,12401-1,"Vabaduse väljak",,59.43321,24.74426,,,,1322
1323,12402-1,"Vabaduse väljak",,59.43323,24.74397,,,,1323
1252,11306-1,"Vana-Lõuna",,59.42280,24.74592,,,,1252
1254,11308-1,"Veerenni",,59.42500,24.74758,,,,1254
1334,12607-1,"Liivalaia",,59.42744,24.74840,,,,1334
1355,13201-1,"Varre",,59.41964,24.75139,,,,1355
1326,12502-1,"Veerenni",,59.42558,24.74899,,,,1326
1358,13302-1,"Veerenni",,59.42418,24.74944,,,,1358
1356,13202-1,"Õilme",,59.42117,24.75080,,,,1356
1357,13301-1,"Õilme",,59.42111,24.75069,,,,1357
134191,12912-1,"Veduri",,59.41665,24.75316,,,,4277
134189,12910-1,"Viadukti",,59.41750,24.75983,,,,4275
134190,12911-1,"Viadukti",,59.41760,24.75872,,,,4276
3890,21211-1,"Viru keskus 1",,59.43580,24.75640,,,,3890
3891,21212-1,"Viru keskus 2",,59.43595,24.75667,,,,3891
3892,21213-1,"Viru keskus 3",,59.43605,24.75644,,,,3892
3893,21214-1,"Viru keskus 4",,59.43621,24.75672,,,,3893
3894,21215-1,"Viru keskus 5",,59.43647,24.75669,,,,3894
3895,21216-1,"Viru keskus 6",,59.43667,24.75665,,,,3895
1246,11204-1,"Lilleküla jaam",,59.42500,24.72978,,,,1246
14701,11207-1,"Uus Maailm",,59.42667,24.74168,,,,14701
10415,06805-1,"Järve",,59.40062,24.72457,,,,10415
10416,06804-1,"Järve",,59.40120,24.72523,,,,10416
10413,11205-1,"Lilleküla",,59.42565,24.72732,,,,10413
10414,11206-1,"Lilleküla",,59.42461,24.72836,,,,10414
10409,07410-1,"Tondi",,59.41094,24.73342,,,,10409
10410,07411-1,"Tondi",,59.41111,24.73367,,,,10410
876,02604-1,"Retke tee",,59.40296,24.70772,,,,876
1074,07209-1,"Sõjakooli",,59.40234,24.71850,,,,1074
1075,07210-1,"Sõjakooli",,59.40256,24.71710,,,,1075
1114,07905-1,"Hipodroom",,59.42829,24.70912,,,,1114
1132,08901-1,"Hipodroom",,59.42898,24.70719,,,,1132
1134,08903-1,"Mooni",,59.42768,24.71370,,,,1134
1135,08904-1,"Taksopark",,59.42747,24.72195,,,,1135
1136,08905-1,"Taksopark",,59.42777,24.71901,,,,1136
150409,00149-1,"Löwenruh",,59.41863,24.69285,,,,6289
1119,08201-1,"Laki",,59.41694,24.67974,,,,1119
1058,06904-1,"Kotka",,59.42119,24.72964,,,,1058
1059,06905-1,"Kotka",,59.42038,24.72980,,,,1059
1055,06901-1,"Ööbiku",,59.41541,24.73238,,,,1055
1065,07104-1,"Ööbiku",,59.41461,24.73251,,,,1065
1122,08204-1,"Forelli",,59.42010,24.68350,,,,1122
1124,08206-1,"Forelli",,59.42047,24.68364,,,,1124
1070,07205-1,"Nõmme tee",,59.41097,24.71607,,,,1070
1099,07706-1,"Nõmme tee",,59.41137,24.71459,,,,1099
1096,07703-1,"Vilja",,59.41259,24.70873,,,,1096
1062,07101-1,"Västriku",,59.40903,24.72502,,,,1062
1071,07206-1,"Västriku",,59.40897,24.72462,,,,1071
1117,08101-1,"Aiandi",,59.41482,24.69138,,,,1117
1115,07906-1,"Hipodroom",,59.42840,24.70343,,,,1115
1123,08205-1,"Löwenruh",,59.41790,24.69383,,,,1123
150408,00148-1,"Löwenruh",,59.41879,24.69506,,,,6288
1116,08001-1,"Marja",,59.42219,24.69833,,,,1116
1125,08302-1,"Marja",,59.42127,24.69693,,,,1125
1112,07903-1,"Välja",,59.42527,24.70106,,,,1112
1113,07904-1,"Välja",,59.42540,24.70077,,,,1113
1057,06903-1,"Hauka",,59.42174,24.72466,,,,1057
1107,07806-1,"Hauka",,59.42075,24.72354,,,,1107
1056,06902-1,"Koolimaja",,59.41840,24.72177,,,,1056
1093,07602-1,"Koolimaja",,59.41745,24.72066,,,,1093
1060,07001-1,"Nõmme tee",,59.41165,24.71574,,,,1060
1061,07002-1,"Räägu",,59.41500,24.71874,,,,1061
1101,07708-1,"Räägu",,59.41433,24.71788,,,,1101
1133,08902-1,"Hipodroom",,59.42988,24.70637,,,,1133
1138,08907-1,"Lille",,59.43126,24.71241,,,,1138
1139,08908-1,"Lille",,59.43214,24.71359,,,,1139
1140,08909-1,"Ristiku",,59.43335,24.71944,,,,1140
1141,08910-1,"Ristiku",,59.43385,24.72119,,,,1141
1050,06701-1,"Energia",,59.39714,24.71033,,,,1050
1051,06702-1,"Energia",,59.39663,24.70986,,,,1051
3843,06704-1,"Energia",,59.39784,24.71067,,,,3843
1052,06703-1,"Tuisu",,59.40028,24.71106,,,,1052
1066,07201-1,"Tuisu",,59.40140,24.71112,,,,1066
1105,07804-1,"Koskla",,59.42459,24.71737,,,,1105
1106,07805-1,"Koskla",,59.42556,24.71774,,,,1106
1097,07704-1,"Linnu tee",,59.41336,24.70824,,,,1097
1098,07705-1,"Linnu tee",,59.41459,24.70867,,,,1098
1092,07601-1,"Tedre",,59.41932,24.71243,,,,1092
1102,07801-1,"Tedre",,59.41978,24.71316,,,,1102
1103,07802-1,"Tihase",,59.42272,24.71539,,,,1103
3842,06705-1,"Järve haigla",,59.39550,24.71556,,,,3842
1068,07203-1,"Marsi",,59.40530,24.71786,,,,1068
1069,07204-1,"Marsi",,59.40494,24.71651,,,,1069
1063,07102-1,"Tondi",,59.41050,24.73147,,,,1063
1064,07103-1,"Tondi",,59.41103,24.73226,,,,1064
1084,07406-1,"Tondi",,59.41132,24.73406,,,,1084
1072,07207-1,"Västriku",,59.40789,24.72484,,,,1072
1073,07208-1,"Västriku",,59.40781,24.72360,,,,1073
1108,07807-1,"Lilleküla jaam",,59.42425,24.72491,,,,1108
1109,07808-1,"Lilleküla jaam",,59.42392,24.72517,,,,1109
1137,08906-1,"Taksopark",,59.42801,24.72033,,,,1137
14380,07809-1,"Taksopark",,59.42636,24.72140,,,,14380
1142,08911-1,"Ülase",,59.43068,24.71809,,,,1142
1143,08912-1,"Ülase",,59.43097,24.71820,,,,1143
14429,16111-1,"Lendtähe",,59.44216,24.85441,,,,14429
14431,16107-1,"Lendtähe",,59.44158,24.85082,,,,14431
14432,16108-1,"Tähesaju tee",,59.44342,24.85946,,,,14432
14433,16112-1,"Tähesaju tee",,59.44375,24.86183,,,,14433
10872,13709-1,"Vesse",,59.42306,24.81916,,,,10872
10873,13710-1,"Vesse",,59.42300,24.81913,,,,10873
10877,13411-1,"Ülemiste",,59.42338,24.79508,,,,10877
10878,13412-1,"Ülemiste",,59.42330,24.79581,,,,10878
1400,14503-1,"Betooni",,59.42632,24.85092,,,,1400
1401,14504-1,"Betooni",,59.42588,24.85099,,,,1401
1386,13901-1,"Betooni põik",,59.42401,24.85646,,,,1386
1387,13902-1,"Betooni põik",,59.42380,24.85649,,,,1387
1398,14501-1,"Gaasi",,59.43054,24.84805,,,,1398
1399,14502-1,"Gaasi",,59.43086,24.84761,,,,1399
1388,14001-1,"Sõstramäe",,59.42624,24.86666,,,,1388
1389,14002-1,"Sõstramäe",,59.42630,24.86749,,,,1389
1488,16503-1,"Iru hooldekodu",,59.45294,24.90529,,,,1488
130347,16510-1,"Iru hooldekodu",,59.45296,24.90532,,,,213
143177,16512-1,"Kuuskivi",,59.45066,24.89783,,,,5968
143544,16512-2,"Kuuskivi",,59.45067,24.89794,,,,5975
1458,15603-1,"J. Smuuli tee",,59.43487,24.83045,,,,1458
3674,15606-1,"J. Smuuli tee",,59.43328,24.83136,,,,3674
1453,15308-1,"Kalevipoja",,59.43582,24.82900,,,,1453
1457,15602-1,"Kalevipoja",,59.43683,24.82854,,,,1457
1443,15201-1,"Liikuri",,59.44180,24.82284,,,,1443
1511,17601-1,"Liikuri",,59.44344,24.82215,,,,1511
12992,13806-1,"Ruunaoja",,59.41695,24.84472,,,,12992
1397,14406-1,"Sõjamäe raba",,59.43054,24.83457,,,,1397
1404,14603-1,"Sõjamäe raba",,59.43052,24.83396,,,,1404
12993,14606-1,"Vesse",,59.42853,24.83569,,,,12993
12995,14607-1,"Vesse",,59.42719,24.83769,,,,12995
13083,14608-1,"Vesse parkla",,59.42888,24.83702,,,,13083
13198,14609-1,"Vesse parkla",,59.42906,24.83806,,,,13198
1473,16102-1,"K. Kärberi",,59.44509,24.87733,,,,1473
1474,16103-1,"K. Kärberi",,59.44535,24.87959,,,,1474
1483,16303-1,"Priisle",,59.44748,24.89134,,,,1483
1486,16501-1,"Priisle",,59.44781,24.89321,,,,1486
4029,16506-1,"Priisle",,59.44721,24.89720,,,,4029
1475,16104-1,"Reinu",,59.44635,24.88588,,,,1475
1481,16301-1,"Reinu",,59.44638,24.88651,,,,1481
138213,13511-1,"Ülemiste linnak",,59.42085,24.79939,,,,19
138214,13512-1,"Ülemiste linnak",,59.42074,24.79956,,,,254
1394,14402-1,"Kuuli",,59.43575,24.85807,,,,1394
1469,16002-1,"Kuuli",,59.43644,24.85806,,,,1469
4008,16206-1,"Kiviku",,59.44300,24.88151,,,,4008
4019,16110-1,"Kiviku",,59.44363,24.88089,,,,4019
4022,16206-2,"Kiviku",,59.44311,24.88244,,,,4022
4037,16105-1,"Kiviku",,59.44416,24.88378,,,,4037
1454,15501-1,"Kotka kauplus",,59.43985,24.83077,,,,1454
1456,15601-1,"Kotka kauplus",,59.43951,24.83268,,,,1456
1437,15105-1,"Kumu",,59.43526,24.79820,,,,1437
1438,15106-1,"Kumu",,59.43473,24.79915,,,,1438
1462,15702-1,"Laagna",,59.44037,24.84323,,,,1462
1465,15801-1,"Laagna",,59.44002,24.84479,,,,1465
13026,15111-1,"Mehaanikakool",,59.43567,24.80616,,,,13026
1472,16101-1,"Mustakivi",,59.44316,24.87191,,,,1472
1476,16201-1,"Mustakivi",,59.44280,24.87559,,,,1476
150703,16201-2,"Mustakivi",,59.44281,24.87513,,,,6314
1444,15202-1,"Paesilla",,59.43868,24.81715,,,,1444
1445,15203-1,"Paesilla",,59.43821,24.81744,,,,1445
4033,16505-1,"Priisle",,59.44652,24.89653,,,,4033
135290,16404-1,"Priisle",,59.44656,24.89850,,,,4541
4026,16403-1,"Rauna",,59.44479,24.88995,,,,4026
4035,16304-1,"Rauna",,59.44534,24.89062,,,,4035
14254,16106-1,"Sabatähe",,59.44130,24.85843,,,,14254
3846,16006-1,"Taevakivi",,59.44134,24.86183,,,,3846
12120,16008-1,"Taevakivi",,59.44241,24.86513,,,,12120
138215,13513-1,"Lennujaam",,59.41814,24.79954,,,,708
138868,13514-1,"Lennujaam",,59.41843,24.79845,,,,5720
138869,13513-2,"Lennujaam",,59.41821,24.79905,,,,5721
1461,15701-1,"Loitsu",,59.44401,24.83974,,,,1461
1508,17401-1,"Loitsu",,59.44433,24.83911,,,,1508
1455,15502-1,"Vana-Kuuli",,59.44322,24.82953,,,,1455
1503,17001-1,"Kuristiku",,59.44946,24.86820,,,,1503
1504,17002-1,"Kuristiku",,59.44956,24.86948,,,,1504
145582,16908-1,"Linnamäe tee",,59.44844,24.86403,,,,6019
1496,16801-1,"Priisle kauplus",,59.44962,24.87972,,,,1496
1497,16802-1,"Priisle kauplus",,59.44932,24.88133,,,,1497
1477,16202-1,"Mahtra",,59.43925,24.87470,,,,1477
1478,16203-1,"Mahtra",,59.43945,24.87618,,,,1478
1418,14801-1,"Majaka",,59.42997,24.78653,,,,1418
1419,14802-1,"Majaka",,59.42996,24.78656,,,,1419
1420,14803-1,"Majaka",,59.42989,24.78634,,,,1420
1421,14804-1,"Majaka",,59.42990,24.78632,,,,1421
1424,14901-1,"Majaka põik",,59.42656,24.79662,,,,1424
1425,14902-1,"Majaka põik",,59.42651,24.79640,,,,1425
1426,14903-1,"Majaka põik",,59.42629,24.79754,,,,1426
1422,14805-1,"Sikupilli",,59.42811,24.79212,,,,1422
1423,14806-1,"Sikupilli",,59.42806,24.79187,,,,1423
3679,14809-1,"Sikupilli",,59.42805,24.79190,,,,3679
4320,14810-1,"Sikupilli",,59.42812,24.79209,,,,4320
4053,17201-1,"Kurina",,59.44786,24.86040,,,,4053
137667,16906-1,"Linnamäe tee",,59.44848,24.86223,,,,5615
145581,16907-1,"Linnamäe tee",,59.44781,24.86215,,,,5758
1498,16901-1,"Läänemere tee",,59.45044,24.86073,,,,1498
1507,17103-1,"Läänemere tee",,59.45040,24.86019,,,,1507
1489,16504-1,"Iru",,59.46019,24.90493,,,,1489
1499,16902-1,"Jussi",,59.45403,24.86190,,,,1499
1500,16903-1,"Jussi",,59.45411,24.86266,,,,1500
1505,17101-1,"Katleri",,59.45131,24.84782,,,,1505
1506,17102-1,"Katleri",,59.45122,24.84953,,,,1506
1494,16703-1,"Kelluka tee",,59.45483,24.87905,,,,1494
1495,16704-1,"Kelluka tee",,59.45474,24.87934,,,,1495
1501,16904-1,"Kose tee",,59.45502,24.87129,,,,1501
1502,16905-1,"Kose tee",,59.45483,24.86958,,,,1502
1513,17801-1,"Lasnamägi",,59.44434,24.81334,,,,1513
1514,17802-1,"Lasnamägi",,59.44502,24.81560,,,,1514
13727,17504-1,"Loopealse",,59.45219,24.83799,,,,13727
13728,17507-1,"Loopealse",,59.45178,24.83969,,,,13728
13328,17506-1,"Meeliku",,59.45111,24.83336,,,,13328
13329,17503-1,"Meeliku",,59.45072,24.83306,,,,13329
1509,17501-1,"Paevälja",,59.44820,24.82699,,,,1509
1510,17502-1,"Paevälja",,59.44845,24.82882,,,,1510
1470,16003-1,"Osmussaare",,59.43554,24.86399,,,,1470
1471,16004-1,"Osmussaare",,59.43587,24.86653,,,,1471
1459,15604-1,"P. Pinna",,59.43551,24.83673,,,,1459
1412,14707-1,"Kiive",,59.43011,24.80735,,,,1412
1441,15109-1,"Kiive",,59.42984,24.80634,,,,1441
1430,14907-1,"Pae",,59.42686,24.80122,,,,1430
1451,15306-1,"Paesilla",,59.43785,24.81894,,,,1451
1448,15303-1,"Uus-Pae",,59.43568,24.81921,,,,1448
1449,15304-1,"Uus-Pae",,59.43563,24.81826,,,,1449
1450,15305-1,"Paesilla",,59.43794,24.81773,,,,1450
1452,15307-1,"Paesilla",,59.43855,24.81988,,,,1452
1433,15101-1,"Asunduse",,59.43096,24.79240,,,,1433
1434,15102-1,"Asunduse",,59.43111,24.79306,,,,1434
1435,15103-1,"Pallasti",,59.43328,24.79722,,,,1435
1436,15104-1,"Pallasti",,59.43415,24.79830,,,,1436
1390,14003-1,"Paneeli",,59.42826,24.86962,,,,1390
1391,14004-1,"Paneeli",,59.42839,24.86964,,,,1391
1392,14302-1,"Pikamägi",,59.43359,24.86562,,,,1392
1393,14303-1,"Pikamägi",,59.43353,24.86593,,,,1393
10791,14505-1,"Gaasi",,59.43148,24.84910,,,,10791
10792,14405-1,"Gaasi",,59.43164,24.84848,,,,10792
1416,14711-1,"Jüriöö park",,59.42713,24.82017,,,,1416
1417,14712-1,"Jüriöö park",,59.42686,24.82142,,,,1417
3395,14808-1,"Kivimurru",,59.42507,24.79489,,,,3395
7158,14301-1,"Kuuli",,59.43325,24.86066,,,,7158
10342,14401-1,"Kuuli",,59.43347,24.85874,,,,10342
10797,14305-1,"Lagedi tee",,59.44105,24.89799,,,,10797
10798,14310-1,"Lagedi tee",,59.44115,24.89745,,,,10798
1427,14904-1,"Pae",,59.42570,24.79719,,,,1427
1428,14905-1,"Pae",,59.42620,24.80102,,,,1428
1429,14906-1,"Pae",,59.42586,24.80173,,,,1429
13012,13010-1,"Peterburi tee",,59.42416,24.78808,,,,13012
10793,16005-1,"Pikamägi",,59.43542,24.86854,,,,10793
10794,14309-1,"Pikamägi",,59.43514,24.86986,,,,10794
9815,14604-1,"Silde",,59.42949,24.84058,,,,9815
9816,14605-1,"Silde",,59.42941,24.84011,,,,9816
1405,14701-1,"Suur-Paala",,59.42690,24.81404,,,,1405
1407,14702-1,"Suur-Paala",,59.42670,24.81422,,,,1407
1408,14703-1,"Suur-Paala",,59.42681,24.81464,,,,1408
1409,14704-1,"Suur-Paala",,59.42667,24.81591,,,,1409
1402,14601-1,"Vesse",,59.42982,24.83755,,,,1402
1403,14602-1,"Vesse",,59.42945,24.83745,,,,1403
1410,14705-1,"Väike-Paala",,59.42629,24.80956,,,,1410
1411,14706-1,"Väike-Paala",,59.42646,24.80806,,,,1411
1431,14908-1,"Väike-Paala",,59.42638,24.80720,,,,1431
1432,14909-1,"Väike-Paala",,59.42655,24.80768,,,,1432
10799,14306-1,"Väo",,59.43926,24.88758,,,,10799
10800,14307-1,"Väo",,59.43945,24.89007,,,,10800
143178,16513-1,"Kuuskivi",,59.45077,24.89706,,,,5969
143510,16513-2,"Kuuskivi",,59.45075,24.89712,,,,5972
13431,16509-1,"Reidumägi",,59.45249,24.89046,,,,13431
13432,16511-1,"Reidumägi",,59.45280,24.88906,,,,13432
1493,16702-1,"Tondi mägi",,59.45442,24.88430,,,,1493
126958,14407-1,"Lasnamäe turg",,59.43570,24.84345,,,,85
145993,16011-1,"Mustakivisilla",,59.43998,24.86642,,,,6061
145994,16012-1,"Mustakivisilla",,59.44016,24.86620,,,,6062
1396,14404-1,"P. Pinna",,59.43495,24.83821,,,,1396
1460,15605-1,"P. Pinna",,59.43465,24.83473,,,,1460
1413,14708-1,"Paala",,59.43199,24.81400,,,,1413
1442,15110-1,"Paala",,59.43211,24.81311,,,,1442
1415,14710-1,"Paekaare",,59.43291,24.82476,,,,1415
1447,15302-1,"Paekaare",,59.43342,24.82702,,,,1447
1395,14403-1,"Pikri",,59.43642,24.84784,,,,1395
1466,15802-1,"Pikri",,59.43635,24.84596,,,,1466
1414,14709-1,"Punane",,59.43232,24.81973,,,,1414
1446,15301-1,"Punane",,59.43238,24.81849,,,,1446
145991,16009-1,"Taevapuna",,59.43863,24.85964,,,,6059
145992,16010-1,"Taevapuna",,59.43855,24.85816,,,,6060
1479,16204-1,"Raadiku",,59.44141,24.87840,,,,1479
1480,16205-1,"Raadiku",,59.44146,24.88034,,,,1480
4015,16207-1,"Raadikusilla",,59.44218,24.88338,,,,4015
151310,00168-1,"Ajutine peatus",,59.42309,24.81033,,,,6336
151314,00172-1,"Ajutine peatus",,59.42312,24.80172,,,,6340
1365,13406-1,"Dvigatel",,59.42296,24.80311,,,,1365
4051,13402-1,"Järvevana",,59.42271,24.78911,,,,4051
1369,13502-1,"Kaubajaama",,59.42285,24.81199,,,,1369
1370,13503-1,"Kesk-Sõjamäe",,59.42212,24.82092,,,,1370
1374,13701-1,"Kesk-Sõjamäe",,59.42236,24.82114,,,,1374
133742,13807-1,"Nuia",,59.41569,24.85379,,,,4232
133743,13808-1,"Nuia",,59.41587,24.85140,,,,4233
1375,13702-1,"Orto",,59.42105,24.82538,,,,1375
1376,13703-1,"Orto",,59.42080,24.82578,,,,1376
1383,13803-1,"Raudbetooni",,59.41586,24.85865,,,,1383
1384,13804-1,"Raudbetooni",,59.41567,24.86108,,,,1384
1381,13801-1,"Ruunaoja",,59.41588,24.84328,,,,1381
1382,13802-1,"Ruunaoja",,59.41565,24.84427,,,,1382
1379,13706-1,"Suur-Sõjamäe",,59.41681,24.83822,,,,1379
1380,13707-1,"Suur-Sõjamäe",,59.41647,24.83879,,,,1380
1385,13805-1,"Sõjamäe",,59.41613,24.86524,,,,1385
1377,13704-1,"Tubaka",,59.41930,24.83074,,,,1377
1378,13705-1,"Tubaka",,59.41905,24.83109,,,,1378
1362,13403-1,"Ülemiste jaam",,59.42316,24.79516,,,,1362
1363,13404-1,"Ülemiste jaam",,59.42296,24.79297,,,,1363
151312,00170-1,"Ajutine peatus",,59.42181,24.78923,,,,6338
1482,16302-1,"Ussimäe tee",,59.44877,24.89081,,,,1482
1487,16502-1,"Ussimäe tee",,59.44911,24.89195,,,,1487
13199,15112-1,"Hundikuristiku",,59.44005,24.80628,,,,13199
13200,15113-1,"Hundikuristiku",,59.44100,24.80860,,,,13200
10808,15100-1,"Kumu",,59.43554,24.79841,,,,10808
10809,15204-1,"Kumu",,59.43610,24.79883,,,,10809
1439,15107-1,"Uuslinn",,59.43799,24.80207,,,,1439
1440,15108-1,"Uuslinn",,59.43812,24.80251,,,,1440
151311,00169-1,"Ajutine peatus",,59.42037,24.80189,,,,6337
151313,00171-1,"Ajutine peatus",,59.42030,24.81146,,,,6339
128588,13506-1,"Lõõtsa",,59.42027,24.80294,,,,126
128590,13508-1,"Valukoja",,59.42028,24.80963,,,,128
128591,13509-1,"Valukoja",,59.42036,24.80890,,,,129
1512,17602-1,"Vana-Kuuli",,59.44389,24.82822,,,,1512
1467,15803-1,"Varraku",,59.43820,24.85132,,,,1467
1468,16001-1,"Varraku",,59.43878,24.85124,,,,1468
1463,15703-1,"Virbi",,59.44372,24.84674,,,,1463
1464,15704-1,"Virbi",,59.44291,24.84710,,,,1464
138352,15311-1,"Võidujooksu",,59.43568,24.81225,,,,5653
138353,15312-1,"Võidujooksu",,59.43602,24.81168,,,,5654
128592,13510-1,"Kaubajaama",,59.42213,24.81085,,,,130
134145,13414-1,"Ülemiste jaam",,59.42490,24.79676,,,,4266
134146,13415-1,"Ülemiste jaam",,59.42478,24.79699,,,,4267
4031,16605-1,"Priisle",,59.44597,24.89796,,,,4031
1490,16601-1,"Seli",,59.44490,24.89665,,,,1490
1491,16602-1,"Seli",,59.44429,24.89672,,,,1491
3678,16603-1,"Seli",,59.44497,24.89803,,,,3678
1484,16401-1,"Ümera",,59.44360,24.89001,,,,1484
1485,16402-1,"Ümera",,59.44354,24.89059,,,,1485
140953,02303-1,"Mustamäe tee",,59.40785,24.68922,,,,5839
904,03104-1,"Autobussikoondis",,59.41049,24.66565,,,,904
912,03205-1,"Karjavälja",,59.40886,24.68274,,,,912
860,02108-1,"Lakiotsa",,59.40993,24.67364,,,,860
910,03203-1,"Lakiotsa",,59.40957,24.67487,,,,910
861,02109-1,"Mustamäe tee",,59.40798,24.68690,,,,861
877,02605-1,"Retke tee",,59.40361,24.70660,,,,877
863,02111-1,"Sipelga",,59.40695,24.69344,,,,863
913,03206-1,"Sipelga",,59.40637,24.69520,,,,913
927,03505-1,"Kadaka",,59.40335,24.65627,,,,927
3110,01801-1,"Kadaka",,59.40466,24.65491,,,,3110
881,02801-1,"Keemia",,59.39700,24.66864,,,,881
882,02802-1,"Keemia",,59.39705,24.66805,,,,882
920,03501-1,"Mustamäe",,59.39968,24.66084,,,,920
922,03404-1,"Mustamäe",,59.39956,24.66084,,,,922
923,03502-1,"Mustamäe",,59.40005,24.65946,,,,923
924,03503-1,"Mustamäe",,59.40103,24.65810,,,,924
925,03503-2,"Mustamäe",,59.40113,24.65774,,,,925
136255,01803-1,"Pöörise",,59.40555,24.65317,,,,3753
136256,03506-1,"Pöörise",,59.40614,24.65190,,,,4586
926,03504-1,"Raja",,59.39761,24.66328,,,,926
907,03107-1,"Akadeemia tee",,59.40176,24.66069,,,,907
921,03405-1,"Akadeemia tee",,59.40132,24.65998,,,,921
906,03106-1,"Kaja",,59.40368,24.66590,,,,906
917,03401-1,"Kaja",,59.40336,24.66452,,,,917
867,02402-1,"Lehola",,59.40308,24.68743,,,,867
871,02502-1,"Lehola",,59.40319,24.68757,,,,871
909,03202-1,"Szolnok",,59.40481,24.67531,,,,909
916,03304-1,"Szolnok",,59.40482,24.67690,,,,916
854,02102-1,"Autobussikoondis",,59.41168,24.66345,,,,854
905,03105-1,"E. Vilde tee",,59.40469,24.66874,,,,905
911,03204-1,"E. Vilde tee",,59.40540,24.66860,,,,911
915,03303-1,"E. Vilde tee",,59.40330,24.66965,,,,915
918,03402-1,"E. Vilde tee",,59.40313,24.66947,,,,918
914,03302-1,"Männi",,59.40029,24.67115,,,,914
919,03403-1,"Männi",,59.40088,24.67046,,,,919
888,02808-1,"Tehnikaülikool",,59.39487,24.67323,,,,888
894,02906-1,"Tehnikaülikool",,59.39528,24.67334,,,,894
895,02907-1,"J. Sütiste tee",,59.39545,24.68387,,,,895
3940,02908-1,"J. Sütiste tee",,59.39548,24.68356,,,,3940
880,02703-1,"Tervise",,59.39695,24.69906,,,,880
900,03004-1,"Tervise",,59.39707,24.69844,,,,900
929,03602-1,"Kassi",,59.39969,24.64591,,,,929
930,03603-1,"Mäepealse",,59.39476,24.64434,,,,930
931,03604-1,"Mäepealse",,59.39405,24.64372,,,,931
1120,08202-1,"Aiandi",,59.41432,24.68943,,,,1120
1121,08203-1,"Aiandi",,59.41467,24.68887,,,,1121
838,01501-1,"Autobussikoondis",,59.40985,24.66270,,,,838
862,02110-1,"Joostimägi",,59.41378,24.67153,,,,862
149343,02103-1,"Joostimägi",,59.41396,24.67246,,,,91
901,03101-1,"Kadaka",,59.40440,24.65646,,,,901
902,03102-1,"Kadaka",,59.40533,24.65791,,,,902
3399,01802-1,"Kadaka",,59.40366,24.65453,,,,3399
853,02101-1,"Kadaka Selver",,59.41118,24.66614,,,,853
856,02104-1,"Kadaka Selver",,59.41260,24.66862,,,,856
928,03601-1,"Kassi",,59.40103,24.64833,,,,928
857,02105-1,"Laki",,59.41650,24.67841,,,,857
147027,03103-1,"Pilvetee",,59.40788,24.66169,,,,6159
147028,03108-1,"Pilvetee",,59.40749,24.66083,,,,6160
889,02901-1,"Keskuse",,59.39919,24.68023,,,,889
890,02902-1,"Keskuse",,59.40053,24.67847,,,,890
893,02905-1,"Männi",,59.39991,24.67195,,,,893
149576,02909-1,"Männi",,59.40020,24.67302,,,,6251
872,02503-1,"A. H. Tammsaare tee",,59.40707,24.68366,,,,872
908,03201-1,"A. H. Tammsaare tee",,59.40682,24.68309,,,,908
858,02106-1,"Aiandi",,59.41382,24.68993,,,,858
142465,03406-1,"Kesk-Mustamäe",,59.40299,24.67894,,,,5922
142466,03407-1,"Kesk-Mustamäe",,59.40311,24.67950,,,,5923
859,02107-1,"Sääse",,59.41066,24.68700,,,,859
864,02201-1,"Sääse",,59.41132,24.68821,,,,864
126806,03606-1,"Kivinuka",,59.39487,24.65229,,,,68
126807,03607-1,"Kivinuka",,59.39502,24.65060,,,,69
149240,03612-1,"Mäealuse",,59.39556,24.65995,,,,5261
149242,03613-1,"Mäealuse",,59.39537,24.65890,,,,5262
126805,03605-1,"Mäepealse",,59.39436,24.64509,,,,67
887,02807-1,"Raja",,59.39584,24.66278,,,,887
885,02805-1,"Trummi",,59.39299,24.66296,,,,885
886,02806-1,"Trummi",,59.39237,24.66346,,,,886
878,02701-1,"Lastehaigla",,59.39945,24.70603,,,,878
879,02702-1,"Lastehaigla",,59.39902,24.70570,,,,879
874,02602-1,"Retke tee",,59.40243,24.70656,,,,874
875,02603-1,"Retke tee",,59.40277,24.70664,,,,875
891,02903-1,"Ehitajate tee",,59.39799,24.67658,,,,891
892,02904-1,"Ehitajate tee",,59.39804,24.67523,,,,892
870,02501-1,"Lepistiku",,59.40275,24.69749,,,,870
873,02601-1,"Lepistiku",,59.40312,24.69886,,,,873
869,02404-1,"Liivaku",,59.39893,24.68232,,,,869
897,03001-1,"Liivaku",,59.39885,24.68427,,,,897
898,03002-1,"Liivaku",,59.39890,24.68361,,,,898
10806,07709-1,"Linnu tee",,59.41252,24.70710,,,,10806
865,02301-1,"Siili",,59.40836,24.70411,,,,865
866,02302-1,"Siili",,59.40773,24.70305,,,,866
868,02403-1,"Vambola",,59.39976,24.68885,,,,868
899,03003-1,"Vambola",,59.39971,24.69021,,,,899
883,02803-1,"Üliõpilaste tee",,59.39247,24.67281,,,,883
884,02804-1,"Üliõpilaste tee",,59.39268,24.67326,,,,884
10734,04804-1,"Hiiu",,59.38295,24.66998,,,,10734
10735,04805-1,"Hiiu",,59.38321,24.67124,,,,10735
10738,05008-1,"Kivimäe",,59.37761,24.65763,,,,10738
10739,05009-1,"Kivimäe",,59.37676,24.65609,,,,10739
10744,04408-1,"Laagri",,59.35433,24.62756,,,,10744
10745,04409-1,"Laagri",,59.35500,24.62786,,,,10745
10732,05408-1,"Nõmme",,59.38634,24.68761,,,,10732
10733,05409-1,"Nõmme",,59.38604,24.68633,,,,10733
10741,04105-1,"Pääsküla",,59.36936,24.64087,,,,10741
10742,04106-1,"Pääsküla",,59.36961,24.64186,,,,10742
14651,04204-1,"Pääsküla Gümnaasium",,59.36810,24.64985,,,,14651
10729,06306-1,"Rahumäe",,59.38897,24.70459,,,,10729
10730,06307-1,"Rahumäe",,59.38855,24.70234,,,,10730
986,05201-1,"Hiiu",,59.37660,24.67765,,,,986
989,05204-1,"Metsa",,59.37985,24.67498,,,,989
971,04801-1,"Raudtee",,59.38305,24.67247,,,,971
937,03707-1,"Hommiku",,59.37926,24.63703,,,,937
933,03703-1,"Hommiku",,59.37949,24.63679,,,,933
934,03704-1,"Hommiku",,59.37893,24.63641,,,,934
935,03705-1,"Kalda",,59.38231,24.63805,,,,935
936,03706-1,"Kalda",,59.38242,24.63829,,,,936
939,03802-1,"Nõva",,59.39049,24.64240,,,,939
940,03803-1,"Nõva",,59.38975,24.64185,,,,940
943,04101-1,"Pääsküla",,59.37040,24.63206,,,,943
960,04605-1,"Pääsküla",,59.36952,24.63148,,,,960
956,04601-1,"Rohula",,59.36567,24.62951,,,,956
957,04602-1,"Rohula",,59.36513,24.62912,,,,957
942,04002-1,"Sireli",,59.37347,24.63353,,,,942
944,04102-1,"Sireli",,59.37285,24.63330,,,,944
932,03702-1,"Õitse",,59.37577,24.63486,,,,932
941,04001-1,"Õitse",,59.37527,24.63444,,,,941
1008,05901-1,"Karusmarja",,59.38039,24.71777,,,,1008
1009,05902-1,"Karusmarja",,59.37989,24.71748,,,,1009
1016,06104-1,"Kauge",,59.36955,24.71765,,,,1016
1017,06105-1,"Kauge",,59.37177,24.71714,,,,1017
1035,06406-1,"Liiva",,59.38841,24.71944,,,,1035
1037,06408-1,"Liiva jaam",,59.38692,24.71807,,,,1037
1038,06409-1,"Liiva jaam",,59.38686,24.71771,,,,1038
1014,06101-1,"Männiku",,59.36683,24.71798,,,,1014
1015,06102-1,"Männiku",,59.36605,24.71757,,,,1015
1010,05903-1,"P. Kerese",,59.37791,24.71786,,,,1010
1011,05904-1,"P. Kerese",,59.37708,24.71766,,,,1011
1018,06106-1,"Pihlaka",,59.37343,24.71812,,,,1018
1019,06107-1,"Pihlaka",,59.37443,24.71784,,,,1019
1030,06401-1,"Risti",,59.39105,24.72157,,,,1030
1039,06410-1,"Värava",,59.38508,24.71762,,,,1039
1040,06411-1,"Värava",,59.38434,24.71738,,,,1040
3926,04501-1,"Laaniku",,59.36136,24.61380,,,,3926
3933,04502-1,"Laaniku",,59.36084,24.61285,,,,3933
3934,04503-1,"Turbasambla",,59.35620,24.61096,,,,3934
3935,04504-1,"Turbasambla",,59.35670,24.61128,,,,3935
985,05105-1,"Pargi",,59.37539,24.67281,,,,985
973,04803-1,"Põllu",,59.38019,24.66818,,,,973
962,04701-1,"Hiiu jaam",,59.38442,24.67313,,,,962
963,04702-1,"Hiiu jaam",,59.38458,24.67320,,,,963
1033,06404-1,"Kirde",,59.38974,24.71098,,,,1033
1034,06405-1,"Kirde",,59.38977,24.71057,,,,1034
974,05001-1,"Kivimäe jaam",,59.37868,24.65534,,,,974
975,05002-1,"Kivimäe jaam",,59.37844,24.65443,,,,975
10692,06305-1,"Kurni",,59.39152,24.71921,,,,10692
976,05003-1,"Laane",,59.37624,24.64998,,,,976
977,05004-1,"Laane",,59.37579,24.64889,,,,977
990,05401-1,"Nõmme",,59.38746,24.68674,,,,990
991,05402-1,"Nõmme",,59.38781,24.68300,,,,991
954,04403-1,"Pärnu maantee",,59.35971,24.63040,,,,954
955,04405-1,"Pärnu maantee",,59.36000,24.62988,,,,955
945,04103-1,"Pääsküla jaam",,59.36951,24.63830,,,,945
961,04607-1,"Pääsküla jaam",,59.36874,24.63701,,,,961
1026,06301-1,"Rahumäe",,59.38870,24.70481,,,,1026
1027,06302-1,"Rahumäe",,59.38869,24.70372,,,,1027
1031,06402-1,"Risti",,59.39261,24.72377,,,,1031
1032,06403-1,"Risti",,59.39198,24.72071,,,,1032
997,05501-1,"Roheline",,59.38638,24.69108,,,,997
998,05502-1,"Roheline",,59.38654,24.69237,,,,998
958,04603-1,"Rohula",,59.36576,24.63253,,,,958
959,04604-1,"Rohula",,59.36528,24.63133,,,,959
978,05005-1,"Salve",,59.38147,24.66414,,,,978
979,05006-1,"Salve",,59.38131,24.66340,,,,979
139011,04505-1,"Sillaotsa",,59.35347,24.62933,,,,5739
952,04401-1,"Vana-Pääsküla",,59.35603,24.63109,,,,952
953,04402-1,"Vana-Pääsküla",,59.35563,24.63056,,,,953
13358,04406-1,"Vana-Pääsküla",,59.35449,24.63017,,,,13358
147995,04404-1,"Vana-Pääsküla",,59.35521,24.63047,,,,5783
993,05404-1,"Võsu",,59.38608,24.67751,,,,993
994,05405-1,"Võsu",,59.38616,24.67728,,,,994
13201,04104-1,"Värsi",,59.37258,24.64286,,,,13201
13202,04107-1,"Värsi",,59.37302,24.64390,,,,13202
1024,06203-1,"Kalmistu",,59.39223,24.70859,,,,1024
1025,06204-1,"Kalmistu",,59.39189,24.70847,,,,1025
1022,06201-1,"Rahumäe",,59.38928,24.70232,,,,1022
995,05406-1,"Kõue",,59.38697,24.69114,,,,995
996,05407-1,"Kõue",,59.38690,24.69007,,,,996
1023,06202-1,"Rahumäe",,59.38871,24.70191,,,,1023
972,04802-1,"Raudtee",,59.38296,24.67113,,,,972
992,05403-1,"Nõmme",,59.38878,24.68330,,,,992
938,03801-1,"Kadaka puiestee",,59.38721,24.64120,,,,938
970,04709-1,"Kadaka puiestee",,59.38712,24.64172,,,,970
968,04707-1,"Tähetorni",,59.38651,24.64639,,,,968
969,04708-1,"Tähetorni",,59.38648,24.64660,,,,969
966,04705-1,"Vääna",,59.38406,24.65209,,,,966
1006,05706-1,"Haava",,59.38307,24.70572,,,,1006
1007,05707-1,"Haava",,59.38261,24.70436,,,,1007
987,05202-1,"Hiiu",,59.37600,24.67868,,,,987
988,05203-1,"Hiiu",,59.37598,24.67731,,,,988
983,05103-1,"Hõimu",,59.37028,24.65808,,,,983
984,05104-1,"Hõimu",,59.37011,24.65722,,,,984
981,05101-1,"J. V. Jannseni",,59.37367,24.66720,,,,981
982,05102-1,"J. V. Jannseni",,59.37290,24.66434,,,,982
999,05601-1,"Kaare",,59.37762,24.68669,,,,999
1000,05602-1,"Kaare",,59.37752,24.68545,,,,1000
1036,06407-1,"Liiva",,59.38821,24.71804,,,,1036
949,04301-1,"Naaritsa",,59.36479,24.63753,,,,949
950,04302-1,"Naaritsa",,59.36480,24.63599,,,,950
1004,05704-1,"Nurme",,59.37947,24.69520,,,,1004
1005,05705-1,"Nurme",,59.37914,24.69354,,,,1005
1028,06303-1,"Näituse",,59.38569,24.71223,,,,1028
1029,06304-1,"Näituse",,59.38531,24.71101,,,,1029
948,04203-1,"Raba",,59.36586,24.64267,,,,948
951,04303-1,"Raba",,59.36608,24.64425,,,,951
1001,05701-1,"Valdeku",,59.38088,24.70038,,,,1001
1002,05702-1,"Valdeku",,59.38050,24.69867,,,,1002
946,04201-1,"Vikerkaare",,59.36781,24.65218,,,,946
947,04202-1,"Vikerkaare",,59.36755,24.65023,,,,947
1013,05906-1,"Astri",,59.37771,24.70651,,,,1013
1021,06109-1,"Astri",,59.37792,24.70528,,,,1021
1041,06601-1,"Kalmu",,59.37563,24.72550,,,,1041
1042,06602-1,"Kalmu",,59.37563,24.72733,,,,1042
1012,05905-1,"Kraavi",,59.37572,24.71579,,,,1012
1020,06108-1,"Kraavi",,59.37626,24.71281,,,,1020
1043,06603-1,"Liiva kalmistu",,59.37589,24.73355,,,,1043
1044,06604-1,"Liiva kalmistu",,59.37588,24.73388,,,,1044
1045,06605-1,"Raku",,59.37628,24.74244,,,,1045
1046,06606-1,"Raku",,59.37621,24.74393,,,,1046
1003,05703-1,"Valdeku",,59.38029,24.70017,,,,1003
150654,00153-1,"Liivametsa",,59.38925,24.73293,,,,6303
150655,00154-1,"Liivametsa",,59.38856,24.73314,,,,6304
128321,06607-1,"Raku",,59.37612,24.74670,,,,115
128322,06608-1,"Raku",,59.37702,24.74613,,,,116
1047,06609-1,"Kaarla",,59.36749,24.75649,,,,1047
1048,06610-1,"Kaarla",,59.36705,24.75705,,,,1048
1049,06611-1,"Raudalu",,59.36259,24.76436,,,,1049
10448,06612-1,"Raudalu",,59.36239,24.76375,,,,10448
12117,06501-1,"Viljandi maantee",,59.39161,24.72842,,,,12117
12118,06502-1,"Viljandi maantee",,59.39142,24.72929,,,,12118
964,04703-1,"Pidu",,59.38316,24.66216,,,,964
965,04704-1,"Pidu",,59.38332,24.66450,,,,965
967,04706-1,"Vääna",,59.38368,24.65381,,,,967
1535,18304-1,"Helmiku tee",,59.45691,24.88023,,,,1535
1538,18503-1,"Kalmuse tee",,59.46860,24.83999,,,,1538
1539,18504-1,"Kalmuse tee",,59.46846,24.83870,,,,1539
1548,18603-1,"Kloostrimetsa",,59.47129,24.87693,,,,1548
1549,18604-1,"Kloostrimetsa",,59.47131,24.87773,,,,1549
1546,18601-1,"Metsakalmistu",,59.46825,24.86728,,,,1546
1547,18602-1,"Metsakalmistu",,59.46790,24.86610,,,,1547
1550,18605-1,"Teletorn",,59.47251,24.88414,,,,1550
1551,18606-1,"Teletorn",,59.47260,24.88523,,,,1551
1527,18201-1,"Haljas tee",,59.45920,24.84642,,,,1527
1528,18202-1,"Haljas tee",,59.45912,24.84616,,,,1528
1531,18205-1,"Kose",,59.45798,24.86105,,,,1531
1529,18203-1,"Lükati tee",,59.45866,24.85079,,,,1529
1530,18204-1,"Lükati tee",,59.45828,24.85381,,,,1530
1517,17903-1,"Saare",,59.45865,24.82026,,,,1517
1524,18101-1,"Saare",,59.45850,24.82001,,,,1524
1520,17906-1,"Sarapuu",,59.45896,24.83524,,,,1520
1523,18001-1,"Sarapuu",,59.45893,24.83552,,,,1523
1518,17904-1,"Tamme",,59.45775,24.82514,,,,1518
1525,18102-1,"Tamme",,59.45782,24.82379,,,,1525
1519,17905-1,"Urva",,59.45838,24.83098,,,,1519
1526,18103-1,"Urva",,59.45813,24.82979,,,,1526
12027,18808-1,"Kaasiku",,59.48650,24.84178,,,,12027
12028,18804-1,"Kaasiku",,59.48548,24.84177,,,,12028
1545,18510-1,"Mähe tee",,59.48037,24.84016,,,,1545
1572,18901-1,"Mähe tee",,59.48105,24.84098,,,,1572
1536,18501-1,"Pirita",,59.46672,24.83266,,,,1536
1537,18502-1,"Pirita",,59.46724,24.83392,,,,1537
1542,18507-1,"Randvere tee",,59.47393,24.83706,,,,1542
1543,18508-1,"Randvere tee",,59.47462,24.83804,,,,1543
1540,18505-1,"Supluse puiestee",,59.47034,24.83491,,,,1540
1541,18506-1,"Supluse puiestee",,59.47116,24.83582,,,,1541
1564,18619-1,"Käära",,59.47287,24.91191,,,,1564
1565,18620-1,"Käära",,59.47320,24.91356,,,,1565
1562,18617-1,"Ristaia",,59.46914,24.90840,,,,1562
1563,18618-1,"Ristaia",,59.46990,24.90923,,,,1563
1515,17901-1,"Lillepi",,59.46066,24.81761,,,,1515
1516,17902-1,"Lillepi",,59.46075,24.81995,,,,1516
14391,17910-1,"Lillepi park",,59.46053,24.81897,,,,14391
142463,12705-1,"Mälestusvälja",,59.45745,24.81190,,,,5920
1521,17907-1,"Rummu",,59.46357,24.82710,,,,1521
1522,17908-1,"Rummu",,59.46430,24.82934,,,,1522
14379,17909-1,"Rummukõrtsi",,59.46213,24.82507,,,,14379
11581,16508-1,"Iru",,59.46178,24.90436,,,,11581
10103,18624-1,"Kõlviku tee",,59.48375,24.88480,,,,10103
10104,18625-1,"Kõlviku tee",,59.48442,24.88425,,,,10104
1560,18615-1,"Laiaküla",,59.47007,24.90236,,,,1560
1561,18616-1,"Laiaküla",,59.46911,24.90283,,,,1561
1552,18607-1,"Liilia tee",,59.48607,24.88224,,,,1552
1553,18608-1,"Liilia tee",,59.48625,24.88226,,,,1553
3097,19008-1,"Mähe aedlinn",,59.48981,24.88048,,,,3097
1556,18611-1,"Pärnamäe tee",,59.47452,24.89646,,,,1556
1557,18612-1,"Pärnamäe tee",,59.47295,24.89841,,,,1557
1558,18613-1,"Pärnamäe tee",,59.47483,24.89640,,,,1558
1559,18614-1,"Pärnamäe tee",,59.47208,24.89935,,,,1559
1554,18609-1,"Äigrumäe",,59.48050,24.89078,,,,1554
1555,18610-1,"Äigrumäe",,59.48110,24.89002,,,,1555
1581,19003-1,"Aianduse tee",,59.48837,24.87088,,,,1581
1582,19004-1,"Aianduse tee",,59.48849,24.87154,,,,1582
1573,18902-1,"Hämar tee",,59.47853,24.84894,,,,1573
1574,18903-1,"Hämar tee",,59.47920,24.85033,,,,1574
1577,18906-1,"Küüvitsa tee",,59.48332,24.85954,,,,1577
1578,18907-1,"Küüvitsa tee",,59.48373,24.86021,,,,1578
1575,18904-1,"Mähe",,59.48007,24.85434,,,,1575
1576,18905-1,"Mähe",,59.48027,24.85507,,,,1576
1583,19005-1,"Mähe aedlinn",,59.49106,24.88062,,,,1583
1584,19006-1,"Mähe aedlinn",,59.49100,24.88122,,,,1584
1585,19007-1,"Mähe aedlinn",,59.49072,24.87884,,,,1585
1579,19001-1,"Oblika tee",,59.48700,24.86525,,,,1579
1580,19002-1,"Oblika tee",,59.48710,24.86539,,,,1580
3993,19009-1,"Pojengi tee",,59.48974,24.87594,,,,3993
1544,18509-1,"Randvere tee",,59.47406,24.83858,,,,1544
1566,18801-1,"Aia tee",,59.48941,24.83555,,,,1566
1567,18802-1,"Aia tee",,59.48978,24.83544,,,,1567
1570,18805-1,"Merivälja",,59.49663,24.82798,,,,1570
1571,18806-1,"Merivälja",,59.49711,24.82865,,,,1571
1568,18803-1,"Tuule tee",,59.49211,24.82922,,,,1568
1569,18807-1,"Tuule tee",,59.49272,24.82891,,,,1569
10684,18908-1,"Kastevarre tee",,59.48859,24.85895,,,,10684
10682,18910-1,"Merivälja pansion",,59.48905,24.84983,,,,10682
1532,18301-1,"Kose",,59.45803,24.86239,,,,1532
1534,18303-1,"Metsakooli tee",,59.46193,24.87480,,,,1534
1533,18302-1,"Nurmiku tee",,59.45954,24.86815,,,,1533
3099,18623-1,"Äigrumäe",,59.48138,24.89083,,,,3099
135634,10615-1,"Miinisadam",,59.45095,24.72175,,,,4560
10137,21106-1,"Tallinn",,59.44050,24.73695,,,,10137
10138,21107-1,"Tallinn",,59.44022,24.73722,,,,10138
1191,09810-1,"Erika",,59.45212,24.71671,,,,1191
1182,09801-1,"Väike-Erika",,59.45005,24.71431,,,,1182
135628,10604-1,"Kalarand",,59.44670,24.74644,,,,4554
135629,10605-1,"Kalarand",,59.44569,24.74764,,,,4555
135630,10611-1,"Lennusadam",,59.45027,24.73630,,,,4556
135631,10612-1,"Lennusadam",,59.44985,24.73787,,,,4557
135635,10616-1,"Miinisadam",,59.45088,24.72357,,,,4561
135632,10613-1,"Noblessneri",,59.45123,24.72657,,,,4558
135633,10614-1,"Noblessneri",,59.45102,24.72792,,,,4559
1174,09602-1,"Kari",,59.44811,24.69660,,,,1174
1203,10003-1,"Kolde puiestee",,59.43985,24.70941,,,,1203
1196,09903-1,"Maisi",,59.44119,24.71298,,,,1196
1204,10004-1,"Maisi",,59.44085,24.71325,,,,1204
1183,09802-1,"Angerja",,59.45006,24.70975,,,,1183
1184,09803-1,"Angerja",,59.45032,24.70946,,,,1184
1234,10801-1,"Balti jaam",,59.44109,24.73788,,,,1234
1624,21101-1,"Balti jaam",,59.44105,24.73843,,,,1624
1147,09004-1,"Kopli",,59.46167,24.66672,,,,1147
1148,09005-1,"Kopli",,59.46121,24.66793,,,,1148
1149,09006-1,"Kopli",,59.46116,24.66765,,,,1149
1151,09007-2,"Kopli",,59.46105,24.66963,,,,1151
138369,10404-1,"Krulli",,59.44604,24.71738,,,,5658
138370,10405-1,"Krulli",,59.44625,24.71702,,,,5659
1157,09106-1,"Maleva",,59.45511,24.68961,,,,1157
1158,09107-1,"Maleva",,59.45513,24.68907,,,,1158
138478,09405-1,"Maleva",,59.45509,24.68924,,,,5692
1152,09101-1,"Marati",,59.45731,24.67660,,,,1152
138222,09108-1,"Marati",,59.45810,24.67552,,,,1774
138223,09109-1,"Marati",,59.45783,24.67583,,,,3666
138473,09110-1,"Marati",,59.45804,24.67541,,,,5690
138367,10803-1,"Salme",,59.44193,24.72910,,,,5656
138368,10804-1,"Salme",,59.44209,24.72867,,,,5657
1144,09001-1,"Sepa",,59.46045,24.67007,,,,1144
1145,09002-1,"Sepa",,59.45953,24.67216,,,,1145
1146,09003-1,"Sepa",,59.45979,24.67187,,,,1146
138474,09008-1,"Sepa",,59.45974,24.67175,,,,5691
1153,09102-1,"Sirbi",,59.45466,24.68277,,,,1153
1154,09103-1,"Sirbi",,59.45504,24.68129,,,,1154
1155,09104-1,"Sirbi",,59.45489,24.68169,,,,1155
1156,09105-1,"Sirbi",,59.45526,24.68097,,,,1156
1185,09804-1,"Sitsi",,59.45306,24.70464,,,,1185
1186,09805-1,"Sitsi",,59.45343,24.70384,,,,1186
1220,10403-1,"Telliskivi",,59.44165,24.73218,,,,1220
1235,10802-1,"Telliskivi",,59.44160,24.73275,,,,1235
1218,10401-1,"Volta",,59.44399,24.72246,,,,1218
1219,10402-1,"Volta",,59.44421,24.72213,,,,1219
1172,09505-1,"Kari",,59.44877,24.69632,,,,1172
1168,09501-1,"Randla",,59.44856,24.69161,,,,1168
150690,00157-1,"Kopli liinid",,59.46057,24.67744,,,,6308
150693,00158-1,"Maleva",,59.45605,24.68920,,,,6309
150688,00155-1,"Neeme",,59.45871,24.68390,,,,6306
150689,00156-1,"Neeme",,59.45815,24.68500,,,,6307
14382,09307-1,"Paagi",,59.46370,24.70162,,,,14382
14383,09308-1,"Paagi",,59.46356,24.70183,,,,14383
1163,09305-1,"Paljassaare põik",,59.46497,24.69958,,,,1163
1159,09301-1,"Lahesuu",,59.45589,24.69916,,,,1159
1160,09302-1,"Lahesuu",,59.45615,24.69941,,,,1160
138131,09309-1,"Liisu",,59.46985,24.71721,,,,5649
138132,09310-1,"Liisu",,59.46926,24.71643,,,,5650
1161,09303-1,"Paljassaare",,59.46013,24.70331,,,,1161
1162,09304-1,"Paljassaare",,59.45993,24.70436,,,,1162
13154,09306-1,"Pikakari",,59.47168,24.72063,,,,13154
1169,09502-1,"Maleva",,59.45466,24.68976,,,,1169
1176,09604-1,"Puhangu",,59.44612,24.69940,,,,1176
1177,09605-1,"Supelranna",,59.44409,24.68784,,,,1177
1175,09603-1,"Vihuri",,59.44392,24.69494,,,,1175
1227,10603-1,"Linnahall",,59.44383,24.75142,,,,1227
1221,10501-1,"Põhja puiestee",,59.44370,24.74407,,,,1221
1222,10502-1,"Põhja puiestee",,59.44347,24.74369,,,,1222
127993,10505-1,"Põhja puiestee",,59.44370,24.74132,,,,110
1173,09601-1,"Pelguranna",,59.44684,24.69106,,,,1173
1626,21105-7,"Balti jaam",,59.44121,24.74068,,,,1626
9115,21105-1,"Balti jaam 1",,59.44059,24.73887,,,,9115
9111,21105-2,"Balti jaam 2",,59.44081,24.73874,,,,9111
9112,21105-3,"Balti jaam 3",,59.44095,24.73926,,,,9112
9113,21105-4,"Balti jaam 4",,59.44108,24.73976,,,,9113
9114,21105-5,"Balti jaam 5",,59.44115,24.74000,,,,9114
1625,21105-6,"Balti jaam 6",,59.44123,24.74030,,,,1625
1207,10007-1,"Härjapea",,59.43787,24.71715,,,,1207
1208,10008-1,"Härjapea",,59.43842,24.71674,,,,1208
1197,09904-1,"Maisi",,59.44145,24.71351,,,,1197
1198,09905-1,"Maisi",,59.44167,24.71354,,,,1198
1205,10005-1,"Pelgulinn",,59.43544,24.72077,,,,1205
1206,10006-1,"Pelgulinn",,59.43609,24.72016,,,,1206
1199,09906-1,"Rukki",,59.44524,24.71095,,,,1199
1200,09907-1,"Rukki",,59.44573,24.71091,,,,1200
1181,09704-1,"Standard",,59.44797,24.71139,,,,1181
1167,09404-1,"Niidi",,59.44941,24.69903,,,,1167
1178,09701-1,"Niidi",,59.44954,24.69942,,,,1178
1179,09702-1,"Sitsi",,59.45301,24.70319,,,,1179
1180,09703-1,"Sitsi",,59.45313,24.70305,,,,1180
1216,10305-1,"Kalamaja",,59.44607,24.73821,,,,1216
129020,09606-1,"Ehte",,59.44707,24.70033,,,,156
129021,09607-1,"Ehte",,59.44592,24.70108,,,,157
1194,09901-1,"Kolde puiestee",,59.44015,24.70749,,,,1194
1210,10201-1,"Kolde puiestee",,59.43926,24.70791,,,,1210
1165,09402-1,"Lõime",,59.45196,24.69400,,,,1165
1170,09503-1,"Lõime",,59.45235,24.69316,,,,1170
1164,09401-1,"Madala",,59.44930,24.69793,,,,1164
1171,09504-1,"Madala",,59.44932,24.69760,,,,1171
1195,09902-1,"Nisu",,59.44311,24.70431,,,,1195
1211,10202-1,"Nisu",,59.44275,24.70435,,,,1211
1201,10001-1,"Sõle",,59.43311,24.71573,,,,1201
1202,10002-1,"Ädala",,59.43613,24.71174,,,,1202
1209,10101-1,"Ädala",,59.43546,24.71205,,,,1209
1239,11003-1,"Kelmiküla",,59.43620,24.72806,,,,1239
1982,21103-1,"Balti jaam",,59.43978,24.73777,,,,1982
1192,09811-1,"Erika",,59.45221,24.71850,,,,1192
1193,09812-1,"Erika",,59.45297,24.71698,,,,1193
1217,10306-1,"Kalamaja",,59.44464,24.73711,,,,1217
1189,09808-1,"Karjamaa",,59.45364,24.71285,,,,1189
1190,09809-1,"Karjamaa",,59.45380,24.71167,,,,1190
1214,10303-1,"Kungla",,59.44738,24.72953,,,,1214
1215,10304-1,"Kungla",,59.44772,24.72891,,,,1215
1187,09806-1,"Tööstuse",,59.45378,24.70511,,,,1187
1188,09807-1,"Tööstuse",,59.45394,24.70623,,,,1188
1212,10301-1,"Volta",,59.44901,24.72569,,,,1212
1213,10302-1,"Volta",,59.44986,24.72418,,,,1213
14166,23513-1,"Vasalemma jaam",,59.23787,24.29768,,,,14166
14184,23512-1,"Vasalemma kool",,59.23071,24.25142,,,,14184
4809,23508-1,"Ämari",,59.24692,24.24154,,,,4809
151231,23508-2,"Ämari",,59.24693,24.24154,,,,2152
12294,23509-1,"Vasalemma",,59.23844,24.29894,,,,12294
12295,23510-1,"Vasalemma",,59.23863,24.29935,,,,12295
4814,22820-1,"Kasepere",,59.22755,24.16567,,,,4814
4806,23501-1,"Murrangu",,59.23127,24.24928,,,,4806
4807,23502-1,"Murrangu",,59.23110,24.25031,,,,4807
4810,23503-1,"Rummu",,59.23108,24.20312,,,,4810
4811,23504-1,"Rummu",,59.23092,24.20461,,,,4811
4803,23505-1,"Vasalemma",,59.23814,24.27424,,,,4803
4805,23506-1,"Vasalemma",,59.23891,24.27551,,,,4805
131742,23703-1,"Kelvingi",,59.54578,24.83929,,,,3990
146541,23715-1,"Vikerkaare",,59.50270,24.84553,,,,6130
11577,23683-1,"Aiandi",,59.50517,24.84258,,,,11577
11578,23684-1,"Aiandi",,59.50473,24.84232,,,,11578
10301,23678-1,"Viievelle tee",,59.50735,24.84892,,,,10301
10302,23679-1,"Viievelle tee",,59.50751,24.84972,,,,10302
146538,23712-1,"Viimsi mõis",,59.50043,24.83484,,,,6127
146539,23713-1,"Viimsi mõis",,59.50074,24.83613,,,,6128
11822,23603-1,"Soosepa",,59.50093,24.85818,,,,11822
4216,23638-1,"Rohuneeme",,59.56087,24.80268,,,,4216
12901,23692-1,"Kaluri tee",,59.50994,24.83245,,,,12901
12858,23687-1,"Lepalinnu",,59.54639,24.88174,,,,12858
12859,23688-1,"Lepalinnu",,59.54654,24.88169,,,,12859
10287,23670-1,"Mäe",,59.54356,24.88317,,,,10287
10288,23671-1,"Mäe",,59.54397,24.88334,,,,10288
4229,23645-1,"Leppneeme sadam",,59.55044,24.86637,,,,4229
10285,23662-1,"Leppneeme",,59.54795,24.87554,,,,10285
10286,23663-1,"Leppneeme",,59.54774,24.87639,,,,10286
5500,23649-1,"Leppneeme lasteaed",,59.54707,24.86386,,,,5500
9609,23653-1,"Leppneeme lasteaed",,59.54670,24.86214,,,,9609
10299,23664-1,"Lubjamäe",,59.51392,24.84978,,,,10299
10300,23665-1,"Lubjamäe",,59.51363,24.85063,,,,10300
11575,23685-1,"Paekaare",,59.51052,24.85340,,,,11575
11576,23686-1,"Paekaare",,59.51063,24.85350,,,,11576
12420,23656-1,"Vainu",,59.51700,24.84708,,,,12420
14338,23619-1,"Vainu",,59.51664,24.84754,,,,14338
10289,23666-1,"Luhaääre",,59.54062,24.88498,,,,10289
10290,23667-1,"Luhaääre",,59.54118,24.88429,,,,10290
13721,23695-1,"Lännemäe",,59.54741,24.85740,,,,13721
2866,20809-1,"Aiaotsa",,59.49647,24.91130,,,,2866
2867,20808-1,"Aiaotsa",,59.49684,24.91100,,,,2867
2870,20812-1,"Muuga",,59.48746,24.92761,,,,2870
2868,20811-1,"Vesiniidu",,59.49080,24.91534,,,,2868
2869,20810-1,"Vesiniidu",,59.49070,24.91596,,,,2869
9603,23654-1,"Tulbiaia",,59.49768,24.84983,,,,9603
151114,23717-1,"Tulbiaia",,59.49766,24.84905,,,,1263
1604,20801-1,"Viimsi vallamaja",,59.49886,24.83691,,,,1604
9604,23655-1,"Viimsi vallamaja",,59.49910,24.83638,,,,9604
12415,23689-1,"Kuremarja",,59.50136,24.86901,,,,12415
130658,23701-1,"Kuremarja",,59.50111,24.86895,,,,236
4220,23613-1,"Farmi",,59.52181,24.85139,,,,4220
4221,23614-1,"Farmi",,59.52125,24.84999,,,,4221
2864,20807-1,"Hansunõmme",,59.49805,24.90269,,,,2864
2865,20806-1,"Hansunõmme",,59.49790,24.90169,,,,2865
10280,23661-1,"Karulaugu",,59.51288,24.83564,,,,10280
4218,23641-1,"Krillimäe",,59.51929,24.84234,,,,4218
4219,23642-1,"Krillimäe",,59.51866,24.83970,,,,4219
2862,20805-1,"Metsakasti",,59.49417,24.89370,,,,2862
2863,20804-1,"Metsakasti",,59.49410,24.89382,,,,2863
4223,23611-1,"Metskitse",,59.52852,24.85813,,,,4223
4224,23612-1,"Metskitse",,59.52785,24.85735,,,,4224
1605,20802-1,"Mõisapargi",,59.50619,24.82979,,,,1605
3117,20823-1,"Mõisapargi",,59.50404,24.82818,,,,3117
4197,23605-1,"Randvere aedlinn",,59.51322,24.90503,,,,4197
4198,23606-1,"Randvere aedlinn",,59.51264,24.90583,,,,4198
14610,23697-1,"Randvere kauplus",,59.49969,24.90377,,,,14610
14611,23698-1,"Randvere kauplus",,59.49889,24.90336,,,,14611
4193,23601-1,"Randvere keskus",,59.50602,24.90560,,,,4193
4194,23602-1,"Randvere keskus",,59.50393,24.90473,,,,4194
4225,23609-1,"Tammneeme küla",,59.53032,24.87592,,,,4225
4226,23610-1,"Tammneeme küla",,59.53042,24.87596,,,,4226
137517,23707-1,"Teekalda",,59.50861,24.90605,,,,5592
4227,23607-1,"Tädu kuusk",,59.52211,24.89371,,,,4227
4228,23608-1,"Tädu kuusk",,59.52103,24.89568,,,,4228
4354,23650-1,"Viimsi kool",,59.50806,24.83160,,,,4354
1606,20803-1,"Viimsi keskus 1",,59.50906,24.83037,,,,1606
9811,23682-1,"Viimsi keskus 2",,59.50910,24.82948,,,,9811
146533,23716-1,"Kelvingi",,59.54588,24.84107,,,,6126
129010,23615-1,"Kivimäe",,59.54705,24.85399,,,,150
129011,23643-1,"Kivimäe",,59.54717,24.85373,,,,151
9670,23659-1,"Vardi",,59.54210,24.80968,,,,9670
9671,23660-1,"Vardi",,59.54230,24.81048,,,,9671
4188,23618-1,"Haabneeme rand",,59.51263,24.81968,,,,4188
9608,23652-1,"Haabneeme rand",,59.51183,24.82009,,,,9608
4186,23616-1,"Kalatööstuse",,59.50820,24.82251,,,,4186
4200,23623-1,"Lahe",,59.51973,24.80869,,,,4200
4206,23628-1,"Liivaranna",,59.53666,24.79360,,,,4206
4207,23629-1,"Liivaranna",,59.53670,24.79350,,,,4207
4189,23621-1,"Meremärgi",,59.51603,24.81489,,,,4189
4190,23620-1,"Meremärgi",,59.51637,24.81437,,,,4190
4212,23634-1,"Püünsi",,59.55509,24.79375,,,,4212
4213,23635-1,"Püünsi",,59.55581,24.79380,,,,4213
4201,23624-1,"Ranna",,59.52713,24.79771,,,,4201
4202,23625-1,"Ranna",,59.52633,24.79762,,,,4202
4199,23622-1,"Rannarahva",,59.52102,24.80585,,,,4199
10281,23672-1,"Rannarahva",,59.52165,24.80421,,,,10281
4210,23632-1,"Rohuneeme kauplus",,59.55089,24.79517,,,,4210
4211,23633-1,"Rohuneeme kauplus",,59.55051,24.79491,,,,4211
4214,23636-1,"Rohuneeme sadam",,59.55855,24.79783,,,,4214
4215,23637-1,"Rohuneeme sadam",,59.55837,24.79747,,,,4215
4208,23630-1,"Suureniidu",,59.54259,24.79620,,,,4208
4209,23631-1,"Suureniidu",,59.54344,24.79656,,,,4209
4204,23626-1,"Suurevälja",,59.53153,24.79584,,,,4204
4205,23627-1,"Suurevälja",,59.53164,24.79550,,,,4205
10282,23673-1,"Tamme",,59.52246,24.80281,,,,10282
146342,23711-1,"Sooheina",,59.49954,24.86592,,,,393
10291,23668-1,"Pällu",,59.53720,24.89069,,,,10291
10292,23669-1,"Pällu",,59.53716,24.89073,,,,10292
10295,23674-1,"Tammneeme keskus",,59.52960,24.88532,,,,10295
10296,23675-1,"Tammneeme keskus",,59.52973,24.88575,,,,10296
10297,23676-1,"Tammneeme tee",,59.53048,24.87869,,,,10297
10298,23677-1,"Tammneeme tee",,59.53042,24.87906,,,,10298
10293,23680-1,"Väljaotsa",,59.53421,24.88893,,,,10293
10294,23681-1,"Väljaotsa",,59.53373,24.88911,,,,10294
12416,23690-1,"Tulika",,59.50058,24.84990,,,,12416
12417,23691-1,"Tulika",,59.50039,24.84979,,,,12417
1617,16507-1,"Iru",,59.46088,24.90639,,,,1617
128203,23693-1,"Püünsi kool",,59.54484,24.80355,,,,113
128204,23696-1,"Püünsi kool",,59.54476,24.80345,,,,114
11823,23604-1,"Vehema",,59.50422,24.85921,,,,11823
128995,23699-1,"Vehema",,59.50401,24.85823,,,,149
146540,23714-1,"Vikerkaare",,59.50251,24.84380,,,,6129
134705,23704-1,"Poepeatus",,59.50565,24.82621,,,,4421